[
	{
		"brand": {
			"brandId": "55",
			"name": "Jewel-Osco"
		},
		"division": {
			"number": "32",
			"name": "JewelOsco"
		},
		"address": {
			"line1": "1340 Patriot Blvd",
			"line2": null,
			"city": "Glenview",
			"state": "IL",
			"zipcode": "60026",
			"country": "US",
			"displayCoordinates": {
				"coordinates": [
					-87.8193672,
					42.0785418
				],
				"type": "Point"
			},
			"routableCoordinates": {
				"coordinates": [
					-87.8193672,
					42.0785418
				],
				"type": "Point"
			},
			"walkableCoordinates": null
		},
		"number": 1
	},
	{
		"brand": {
			"brandId": "66",
			"name": "Albertsons"
		},
		"division": {
			"number": "17",
			"name": "Southwest"
		},
		"address": {
			"line1": "201 S Stephanie St",
			"line2": null,
			"city": "Henderson",
			"state": "NV",
			"zipcode": "89012",
			"country": "US",
			"displayCoordinates": {
				"coordinates": [
					-115.04939858967646,
					36.02033388148955
				],
				"type": "Point"
			},
			"routableCoordinates": {
				"coordinates": [
					-115.04939858967646,
					36.02033388148955
				],
				"type": "Point"
			},
			"walkableCoordinates": null
		},
		"number": 2
	},
	{
		"brand": {
			"brandId": "66",
			"name": "Albertsons"
		},
		"division": {
			"number": "17",
			"name": "Southwest"
		},
		"address": {
			"line1": "3130 W Carefree Hwy",
			"line2": null,
			"city": "Phoenix",
			"state": "AZ",
			"zipcode": "85086",
			"country": "US",
			"displayCoordinates": {
				"coordinates": [
					-112.1270473,
					33.7998807
				],
				"type": "Point"
			},
			"routableCoordinates": {
				"coordinates": [
					-112.1270473,
					33.7998807
				],
				"type": "Point"
			},
			"walkableCoordinates": null
		},
		"number": 4
	},
	{
		"brand": {
			"brandId": "1",
			"name": "Safeway"
		},
		"division": {
			"number": "34",
			"name": "Mid-Atlantic"
		},
		"address": {
			"line1": "11120 S Lakes Dr",
			"line2": null,
			"city": "Reston",
			"state": "VA",
			"zipcode": "20191",
			"country": "US",
			"displayCoordinates": {
				"coordinates": [
					-77.3299031,
					38.9396256
				],
				"type": "Point"
			},
			"routableCoordinates": {
				"coordinates": [
					-77.3299031,
					38.9396256
				],
				"type": "Point"
			},
			"walkableCoordinates": null
		},
		"number": 5
	},
	{
		"brand": {
			"brandId": "66",
			"name": "Albertsons"
		},
		"division": {
			"number": "30",
			"name": "InterMtn"
		},
		"address": {
			"line1": "200 S 23rd Ave",
			"line2": null,
			"city": "Bozeman",
			"state": "MT",
			"zipcode": "59718",
			"country": "US",
			"displayCoordinates": {
				"coordinates": [
					-111.0653345,
					45.6769818
				],
				"type": "Point"
			},
			"routableCoordinates": {
				"coordinates": [
					-111.0653345,
					45.6769818
				],
				"type": "Point"
			},
			"walkableCoordinates": null
		},
		"number": 6
	},
	{
		"brand": {
			"brandId": "1",
			"name": "Safeway"
		},
		"division": {
			"number": "5",
			"name": "Denver"
		},
		"address": {
			"line1": "7375 E Arapahoe Rd",
			"line2": null,
			"city": "Englewood",
			"state": "CO",
			"zipcode": "80112",
			"country": "US",
			"displayCoordinates": {
				"coordinates": [
					-104.9034845,
					39.5963598
				],
				"type": "Point"
			},
			"routableCoordinates": {
				"coordinates": [
					-104.9034845,
					39.5963598
				],
				"type": "Point"
			},
			"walkableCoordinates": null
		},
		"number": 8
	},
	{
		"brand": {
			"brandId": "66",
			"name": "Albertsons"
		},
		"division": {
			"number": "30",
			"name": "InterMtn"
		},
		"address": {
			"line1": "6999 Jackrabbit Ln",
			"line2": null,
			"city": "Belgrade",
			"state": "MT",
			"zipcode": "59714",
			"country": "US",
			"displayCoordinates": {
				"coordinates": [
					-111.1870498,
					45.7717361
				],
				"type": "Point"
			},
			"routableCoordinates": {
				"coordinates": [
					-111.1870498,
					45.7717361
				],
				"type": "Point"
			},
			"walkableCoordinates": null
		},
		"number": 9
	},
	{
		"brand": {
			"brandId": "1",
			"name": "Safeway"
		},
		"division": {
			"number": "5",
			"name": "Denver"
		},
		"address": {
			"line1": "3851 S Hwy 74",
			"line2": null,
			"city": "Evergreen",
			"state": "CO",
			"zipcode": "80439",
			"country": "US",
			"displayCoordinates": {
				"coordinates": [
					-105.3398855,
					39.6456695
				],
				"type": "Point"
			},
			"routableCoordinates": {
				"coordinates": [
					-105.3398855,
					39.6456695
				],
				"type": "Point"
			},
			"walkableCoordinates": null
		},
		"number": 10
	},
	{
		"brand": {
			"brandId": "66",
			"name": "Albertsons"
		},
		"division": {
			"number": "17",
			"name": "Southwest"
		},
		"address": {
			"line1": "2550 S Fort Apache Rd",
			"line2": null,
			"city": "Las Vegas",
			"state": "NV",
			"zipcode": "89117",
			"country": "US",
			"displayCoordinates": {
				"coordinates": [
					-115.2959051880498,
					36.14336820904155
				],
				"type": "Point"
			},
			"routableCoordinates": {
				"coordinates": [
					-115.2959051880498,
					36.14336820904155
				],
				"type": "Point"
			},
			"walkableCoordinates": null
		},
		"number": 13
	},
	{
		"brand": {
			"brandId": "66",
			"name": "Albertsons"
		},
		"division": {
			"number": "30",
			"name": "InterMtn"
		},
		"address": {
			"line1": "415 Blaine St",
			"line2": null,
			"city": "Wolf Point",
			"state": "MT",
			"zipcode": "59201",
			"country": "US",
			"displayCoordinates": {
				"coordinates": [
					-105.6435806,
					48.0923669
				],
				"type": "Point"
			},
			"routableCoordinates": {
				"coordinates": [
					-105.6435806,
					48.0923669
				],
				"type": "Point"
			},
			"walkableCoordinates": null
		},
		"number": 15
	},
	{
		"brand": {
			"brandId": "1",
			"name": "Safeway"
		},
		"division": {
			"number": "5",
			"name": "Denver"
		},
		"address": {
			"line1": "201 E Jefferson Ave",
			"line2": null,
			"city": "Englewood",
			"state": "CO",
			"zipcode": "80113",
			"country": "US",
			"displayCoordinates": {
				"coordinates": [
					-104.98463230484981,
					39.65185262708615
				],
				"type": "Point"
			},
			"routableCoordinates": {
				"coordinates": [
					-104.98463230484981,
					39.65185262708615
				],
				"type": "Point"
			},
			"walkableCoordinates": null
		},
		"number": 17
	},
	{
		"brand": {
			"brandId": "66",
			"name": "Albertsons"
		},
		"division": {
			"number": "30",
			"name": "InterMtn"
		},
		"address": {
			"line1": "900 W Idaho St",
			"line2": null,
			"city": "Kalispell",
			"state": "MT",
			"zipcode": "59901",
			"country": "US",
			"displayCoordinates": {
				"coordinates": [
					-114.3294773,
					48.1996045
				],
				"type": "Point"
			},
			"routableCoordinates": {
				"coordinates": [
					-114.3294773,
					48.1996045
				],
				"type": "Point"
			},
			"walkableCoordinates": null
		},
		"number": 18
	},
	{
		"brand": {
			"brandId": "66",
			"name": "Albertsons"
		},
		"division": {
			"number": "30",
			"name": "InterMtn"
		},
		"address": {
			"line1": "117 W Janeaux St",
			"line2": null,
			"city": "Lewistown",
			"state": "MT",
			"zipcode": "59457",
			"country": "US",
			"displayCoordinates": {
				"coordinates": [
					-109.4228214507757,
					47.06537556513488
				],
				"type": "Point"
			},
			"routableCoordinates": {
				"coordinates": [
					-109.4228214507757,
					47.06537556513488
				],
				"type": "Point"
			},
			"walkableCoordinates": null
		},
		"number": 19
	},
	{
		"brand": {
			"brandId": "66",
			"name": "Albertsons"
		},
		"division": {
			"number": "30",
			"name": "InterMtn"
		},
		"address": {
			"line1": "2205 Oxford St",
			"line2": null,
			"city": "Missoula",
			"state": "MT",
			"zipcode": "59801",
			"country": "US",
			"displayCoordinates": {
				"coordinates": [
					-114.0175344,
					46.8509496
				],
				"type": "Point"
			},
			"routableCoordinates": {
				"coordinates": [
					-114.0175344,
					46.8509496
				],
				"type": "Point"
			},
			"walkableCoordinates": null
		},
		"number": 20
	},
	{
		"brand": {
			"brandId": "15",
			"name": "United Supermarkets"
		},
		"division": {
			"number": "15",
			"name": "United"
		},
		"address": {
			"line1": "4701 S Washington St",
			"line2": null,
			"city": "Amarillo",
			"state": "TX",
			"zipcode": "79110",
			"country": "US",
			"displayCoordinates": {
				"coordinates": [
					-101.84671373697711,
					35.16184570037984
				],
				"type": "Point"
			},
			"routableCoordinates": {
				"coordinates": [
					-101.84671373697711,
					35.16184570037984
				],
				"type": "Point"
			},
			"walkableCoordinates": null
		},
		"number": 22
	},
	{
		"brand": {
			"brandId": "66",
			"name": "Albertsons"
		},
		"division": {
			"number": "17",
			"name": "Southwest"
		},
		"address": {
			"line1": "861 E Warner Rd",
			"line2": null,
			"city": "Gilbert",
			"state": "AZ",
			"zipcode": "85296",
			"country": "US",
			"displayCoordinates": {
				"coordinates": [
					-111.7716903,
					33.33395
				],
				"type": "Point"
			},
			"routableCoordinates": {
				"coordinates": [
					-111.7716903,
					33.33395
				],
				"type": "Point"
			},
			"walkableCoordinates": null
		},
		"number": 23
	},
	{
		"brand": {
			"brandId": "66",
			"name": "Albertsons"
		},
		"division": {
			"number": "30",
			"name": "InterMtn"
		},
		"address": {
			"line1": "1003 E Broadway St",
			"line2": null,
			"city": "Missoula",
			"state": "MT",
			"zipcode": "59802",
			"country": "US",
			"displayCoordinates": {
				"coordinates": [
					-113.9811782,
					46.8675004
				],
				"type": "Point"
			},
			"routableCoordinates": {
				"coordinates": [
					-113.9811782,
					46.8675004
				],
				"type": "Point"
			},
			"walkableCoordinates": null
		},
		"number": 24
	},
	{
		"brand": {
			"brandId": "66",
			"name": "Albertsons"
		},
		"division": {
			"number": "17",
			"name": "Southwest"
		},
		"address": {
			"line1": "21001 N Tatum Blvd Suite 76",
			"line2": null,
			"city": "Phoenix",
			"state": "AZ",
			"zipcode": "85050",
			"country": "US",
			"displayCoordinates": {
				"coordinates": [
					-111.97470279086701,
					33.67862831103052
				],
				"type": "Point"
			},
			"routableCoordinates": {
				"coordinates": [
					-111.97470279086701,
					33.67862831103052
				],
				"type": "Point"
			},
			"walkableCoordinates": null
		},
		"number": 25
	},
	{
		"brand": {
			"brandId": "1",
			"name": "Safeway"
		},
		"division": {
			"number": "5",
			"name": "Denver"
		},
		"address": {
			"line1": "5025 S Kipling Pkwy",
			"line2": null,
			"city": "Littleton",
			"state": "CO",
			"zipcode": "80127",
			"country": "US",
			"displayCoordinates": {
				"coordinates": [
					-105.11120204222034,
					39.625582990812696
				],
				"type": "Point"
			},
			"routableCoordinates": {
				"coordinates": [
					-105.11120204222034,
					39.625582990812696
				],
				"type": "Point"
			},
			"walkableCoordinates": null
		},
		"number": 27
	},
	{
		"brand": {
			"brandId": "66",
			"name": "Albertsons"
		},
		"division": {
			"number": "30",
			"name": "InterMtn"
		},
		"address": {
			"line1": "20 26th St E",
			"line2": null,
			"city": "Williston",
			"state": "ND",
			"zipcode": "58801",
			"country": "US",
			"displayCoordinates": {
				"coordinates": [
					-103.6225375,
					48.1679133
				],
				"type": "Point"
			},
			"routableCoordinates": {
				"coordinates": [
					-103.6225375,
					48.1679133
				],
				"type": "Point"
			},
			"walkableCoordinates": null
		},
		"number": 28
	},
	{
		"brand": {
			"brandId": "66",
			"name": "Albertsons"
		},
		"division": {
			"number": "30",
			"name": "InterMtn"
		},
		"address": {
			"line1": "501 W Main St",
			"line2": null,
			"city": "Cut Bank",
			"state": "MT",
			"zipcode": "59427",
			"country": "US",
			"displayCoordinates": {
				"coordinates": [
					-112.33850955963135,
					48.640558637060984
				],
				"type": "Point"
			},
			"routableCoordinates": {
				"coordinates": [
					-112.33850955963135,
					48.640558637060984
				],
				"type": "Point"
			},
			"walkableCoordinates": null
		},
		"number": 33
	},
	{
		"brand": {
			"brandId": "15",
			"name": "United Supermarkets"
		},
		"division": {
			"number": "15",
			"name": "United"
		},
		"address": {
			"line1": "1601 Tennessee Ave",
			"line2": null,
			"city": "Dalhart",
			"state": "TX",
			"zipcode": "79022",
			"country": "US",
			"displayCoordinates": {
				"coordinates": [
					-102.51233607530594,
					36.05043480586153
				],
				"type": "Point"
			},
			"routableCoordinates": {
				"coordinates": [
					-102.51233607530594,
					36.05043480586153
				],
				"type": "Point"
			},
			"walkableCoordinates": null
		},
		"number": 34
	},
	{
		"brand": {
			"brandId": "66",
			"name": "Albertsons"
		},
		"division": {
			"number": "30",
			"name": "InterMtn"
		},
		"address": {
			"line1": "1414 3rd St NW",
			"line2": null,
			"city": "Great Falls",
			"state": "MT",
			"zipcode": "59404",
			"country": "US",
			"displayCoordinates": {
				"coordinates": [
					-111.3114639,
					47.5201229
				],
				"type": "Point"
			},
			"routableCoordinates": {
				"coordinates": [
					-111.3114639,
					47.5201229
				],
				"type": "Point"
			},
			"walkableCoordinates": null
		},
		"number": 35
	},
	{
		"brand": {
			"brandId": "66",
			"name": "Albertsons"
		},
		"division": {
			"number": "30",
			"name": "InterMtn"
		},
		"address": {
			"line1": "2250 10th Ave S",
			"line2": null,
			"city": "Great Falls",
			"state": "MT",
			"zipcode": "59405",
			"country": "US",
			"displayCoordinates": {
				"coordinates": [
					-111.269422,
					47.4930435
				],
				"type": "Point"
			},
			"routableCoordinates": {
				"coordinates": [
					-111.269422,
					47.4930435
				],
				"type": "Point"
			},
			"walkableCoordinates": null
		},
		"number": 37
	},
	{
		"brand": {
			"brandId": "66",
			"name": "Albertsons"
		},
		"division": {
			"number": "30",
			"name": "InterMtn"
		},
		"address": {
			"line1": "1212 Grand Ave",
			"line2": null,
			"city": "Billings",
			"state": "MT",
			"zipcode": "59102",
			"country": "US",
			"displayCoordinates": {
				"coordinates": [
					-108.5478378,
					45.7826629
				],
				"type": "Point"
			},
			"routableCoordinates": {
				"coordinates": [
					-108.5478378,
					45.7826629
				],
				"type": "Point"
			},
			"walkableCoordinates": null
		},
		"number": 38
	},
	{
		"brand": {
			"brandId": "66",
			"name": "Albertsons"
		},
		"division": {
			"number": "30",
			"name": "InterMtn"
		},
		"address": {
			"line1": "519 S Haynes Ave",
			"line2": null,
			"city": "Miles City",
			"state": "MT",
			"zipcode": "59301",
			"country": "US",
			"displayCoordinates": {
				"coordinates": [
					-105.8241245,
					46.4032703
				],
				"type": "Point"
			},
			"routableCoordinates": {
				"coordinates": [
					-105.8241245,
					46.4032703
				],
				"type": "Point"
			},
			"walkableCoordinates": null
		},
		"number": 39
	},
	{
		"brand": {
			"brandId": "1",
			"name": "Safeway"
		},
		"division": {
			"number": "5",
			"name": "Denver"
		},
		"address": {
			"line1": "13111 W Alameda Pkwy",
			"line2": null,
			"city": "Lakewood",
			"state": "CO",
			"zipcode": "80228",
			"country": "US",
			"displayCoordinates": {
				"coordinates": [
					-105.14587640762329,
					39.69836267139225
				],
				"type": "Point"
			},
			"routableCoordinates": {
				"coordinates": [
					-105.14587640762329,
					39.69836267139225
				],
				"type": "Point"
			},
			"walkableCoordinates": null
		},
		"number": 41
	},
	{
		"brand": {
			"brandId": "66",
			"name": "Albertsons"
		},
		"division": {
			"number": "30",
			"name": "InterMtn"
		},
		"address": {
			"line1": "2120 W Park St",
			"line2": null,
			"city": "Livingston",
			"state": "MT",
			"zipcode": "59047",
			"country": "US",
			"displayCoordinates": {
				"coordinates": [
					-110.5754379,
					45.6423116
				],
				"type": "Point"
			},
			"routableCoordinates": {
				"coordinates": [
					-110.5754379,
					45.6423116
				],
				"type": "Point"
			},
			"walkableCoordinates": null
		},
		"number": 42
	},
	{
		"brand": {
			"brandId": "66",
			"name": "Albertsons"
		},
		"division": {
			"number": "30",
			"name": "InterMtn"
		},
		"address": {
			"line1": "2230 N Reserve St",
			"line2": null,
			"city": "Missoula",
			"state": "MT",
			"zipcode": "59808",
			"country": "US",
			"displayCoordinates": {
				"coordinates": [
					-114.03637826453632,
					46.885923199772236
				],
				"type": "Point"
			},
			"routableCoordinates": {
				"coordinates": [
					-114.03637826453632,
					46.885923199772236
				],
				"type": "Point"
			},
			"walkableCoordinates": null
		},
		"number": 43
	},
	{
		"brand": {
			"brandId": "66",
			"name": "Albertsons"
		},
		"division": {
			"number": "17",
			"name": "Southwest"
		},
		"address": {
			"line1": "1760 E Charleston Blvd",
			"line2": null,
			"city": "Las Vegas",
			"state": "NV",
			"zipcode": "89104",
			"country": "US",
			"displayCoordinates": {
				"coordinates": [
					-115.12560045732243,
					36.15689296566621
				],
				"type": "Point"
			},
			"routableCoordinates": {
				"coordinates": [
					-115.12560045732243,
					36.15689296566621
				],
				"type": "Point"
			},
			"walkableCoordinates": null
		},
		"number": 45
	},
	{
		"brand": {
			"brandId": "66",
			"name": "Albertsons"
		},
		"division": {
			"number": "17",
			"name": "Southwest"
		},
		"address": {
			"line1": "1001 S Rainbow Blvd",
			"line2": null,
			"city": "Las Vegas",
			"state": "NV",
			"zipcode": "89145",
			"country": "US",
			"displayCoordinates": {
				"coordinates": [
					-115.2452074,
					36.160163
				],
				"type": "Point"
			},
			"routableCoordinates": {
				"coordinates": [
					-115.2452074,
					36.160163
				],
				"type": "Point"
			},
			"walkableCoordinates": null
		},
		"number": 46
	},
	{
		"brand": {
			"brandId": "66",
			"name": "Albertsons"
		},
		"division": {
			"number": "30",
			"name": "InterMtn"
		},
		"address": {
			"line1": "511 Central Ave",
			"line2": null,
			"city": "Billings",
			"state": "MT",
			"zipcode": "59102",
			"country": "US",
			"displayCoordinates": {
				"coordinates": [
					-108.5288606,
					45.7704966
				],
				"type": "Point"
			},
			"routableCoordinates": {
				"coordinates": [
					-108.5288606,
					45.7704966
				],
				"type": "Point"
			},
			"walkableCoordinates": null
		},
		"number": 47
	},
	{
		"brand": {
			"brandId": "55",
			"name": "Jewel-Osco"
		},
		"division": {
			"number": "32",
			"name": "JewelOsco"
		},
		"address": {
			"line1": "21164 S La Grange Rd",
			"line2": null,
			"city": "Frankfort",
			"state": "IL",
			"zipcode": "60423",
			"country": "US",
			"displayCoordinates": {
				"coordinates": [
					-87.85340872570782,
					41.50488047008726
				],
				"type": "Point"
			},
			"routableCoordinates": {
				"coordinates": [
					-87.85340872570782,
					41.50488047008726
				],
				"type": "Point"
			},
			"walkableCoordinates": null
		},
		"number": 52
	},
	{
		"brand": {
			"brandId": "55",
			"name": "Jewel-Osco"
		},
		"division": {
			"number": "32",
			"name": "JewelOsco"
		},
		"address": {
			"line1": "1156 Maple Ave",
			"line2": null,
			"city": "Lisle",
			"state": "IL",
			"zipcode": "60532",
			"country": "US",
			"displayCoordinates": {
				"coordinates": [
					-88.0755776,
					41.7870243
				],
				"type": "Point"
			},
			"routableCoordinates": {
				"coordinates": [
					-88.0755776,
					41.7870243
				],
				"type": "Point"
			},
			"walkableCoordinates": null
		},
		"number": 56
	},
	{
		"brand": {
			"brandId": "44",
			"name": "Shaws"
		},
		"division": {
			"number": "33",
			"name": "Shaws"
		},
		"address": {
			"line1": "175 High St",
			"line2": null,
			"city": "Ellsworth",
			"state": "ME",
			"zipcode": "04605",
			"country": "US",
			"displayCoordinates": {
				"coordinates": [
					-68.41313928365707,
					44.53463444089496
				],
				"type": "Point"
			},
			"routableCoordinates": {
				"coordinates": [
					-68.41313928365707,
					44.53463444089496
				],
				"type": "Point"
			},
			"walkableCoordinates": null
		},
		"number": 57
	},
	{
		"brand": {
			"brandId": "55",
			"name": "Jewel-Osco"
		},
		"division": {
			"number": "32",
			"name": "JewelOsco"
		},
		"address": {
			"line1": "2855 W 95th St",
			"line2": null,
			"city": "Naperville",
			"state": "IL",
			"zipcode": "60564",
			"country": "US",
			"displayCoordinates": {
				"coordinates": [
					-88.2032945,
					41.7120787
				],
				"type": "Point"
			},
			"routableCoordinates": {
				"coordinates": [
					-88.2032945,
					41.7120787
				],
				"type": "Point"
			},
			"walkableCoordinates": null
		},
		"number": 58
	},
	{
		"brand": {
			"brandId": "55",
			"name": "Jewel-Osco"
		},
		"division": {
			"number": "32",
			"name": "JewelOsco"
		},
		"address": {
			"line1": "1759 W Ogden Ave",
			"line2": null,
			"city": "Naperville",
			"state": "IL",
			"zipcode": "60540",
			"country": "US",
			"displayCoordinates": {
				"coordinates": [
					-88.1880946,
					41.7631238
				],
				"type": "Point"
			},
			"routableCoordinates": {
				"coordinates": [
					-88.1880946,
					41.7631238
				],
				"type": "Point"
			},
			"walkableCoordinates": null
		},
		"number": 59
	},
	{
		"brand": {
			"brandId": "66",
			"name": "Albertsons"
		},
		"division": {
			"number": "5",
			"name": "Denver"
		},
		"address": {
			"line1": "1076 CY Ave",
			"line2": null,
			"city": "Casper",
			"state": "WY",
			"zipcode": "82604",
			"country": "US",
			"displayCoordinates": {
				"coordinates": [
					-106.3390042,
					42.8350346
				],
				"type": "Point"
			},
			"routableCoordinates": {
				"coordinates": [
					-106.3390042,
					42.8350346
				],
				"type": "Point"
			},
			"walkableCoordinates": null
		},
		"number": 60
	},
	{
		"brand": {
			"brandId": "66",
			"name": "Albertsons"
		},
		"division": {
			"number": "17",
			"name": "Southwest"
		},
		"address": {
			"line1": "4850 W Craig Rd",
			"line2": null,
			"city": "Las Vegas",
			"state": "NV",
			"zipcode": "89130",
			"country": "US",
			"displayCoordinates": {
				"coordinates": [
					-115.2090051,
					36.2402179
				],
				"type": "Point"
			},
			"routableCoordinates": {
				"coordinates": [
					-115.2090051,
					36.2402179
				],
				"type": "Point"
			},
			"walkableCoordinates": null
		},
		"number": 61
	},
	{
		"brand": {
			"brandId": "66",
			"name": "Albertsons"
		},
		"division": {
			"number": "5",
			"name": "Denver"
		},
		"address": {
			"line1": "2625 E 2nd St",
			"line2": null,
			"city": "Casper",
			"state": "WY",
			"zipcode": "82609",
			"country": "US",
			"displayCoordinates": {
				"coordinates": [
					-106.29249845797403,
					42.84816245321191
				],
				"type": "Point"
			},
			"routableCoordinates": {
				"coordinates": [
					-106.29249845797403,
					42.84816245321191
				],
				"type": "Point"
			},
			"walkableCoordinates": null
		},
		"number": 62
	},
	{
		"brand": {
			"brandId": "55",
			"name": "Jewel-Osco"
		},
		"division": {
			"number": "32",
			"name": "JewelOsco"
		},
		"address": {
			"line1": "763 E 162nd St",
			"line2": null,
			"city": "South Holland",
			"state": "IL",
			"zipcode": "60473",
			"country": "US",
			"displayCoordinates": {
				"coordinates": [
					-87.5983196,
					41.6001111
				],
				"type": "Point"
			},
			"routableCoordinates": {
				"coordinates": [
					-87.5983196,
					41.6001111
				],
				"type": "Point"
			},
			"walkableCoordinates": null
		},
		"number": 63
	},
	{
		"brand": {
			"brandId": "66",
			"name": "Albertsons"
		},
		"division": {
			"number": "5",
			"name": "Denver"
		},
		"address": {
			"line1": "1865 Coffeen Ave",
			"line2": null,
			"city": "Sheridan",
			"state": "WY",
			"zipcode": "82801",
			"country": "US",
			"displayCoordinates": {
				"coordinates": [
					-106.9414525,
					44.7779082
				],
				"type": "Point"
			},
			"routableCoordinates": {
				"coordinates": [
					-106.9414525,
					44.7779082
				],
				"type": "Point"
			},
			"walkableCoordinates": null
		},
		"number": 64
	},
	{
		"brand": {
			"brandId": "66",
			"name": "Albertsons"
		},
		"division": {
			"number": "5",
			"name": "Denver"
		},
		"address": {
			"line1": "3355 E Pershing Blvd",
			"line2": null,
			"city": "Cheyenne",
			"state": "WY",
			"zipcode": "82001",
			"country": "US",
			"displayCoordinates": {
				"coordinates": [
					-104.7690476,
					41.1442992
				],
				"type": "Point"
			},
			"routableCoordinates": {
				"coordinates": [
					-104.7690476,
					41.1442992
				],
				"type": "Point"
			},
			"walkableCoordinates": null
		},
		"number": 65
	},
	{
		"brand": {
			"brandId": "66",
			"name": "Albertsons"
		},
		"division": {
			"number": "5",
			"name": "Denver"
		},
		"address": {
			"line1": "5800 Yellowstone Rd",
			"line2": null,
			"city": "Cheyenne",
			"state": "WY",
			"zipcode": "82009",
			"country": "US",
			"displayCoordinates": {
				"coordinates": [
					-104.8299390077591,
					41.17268211300173
				],
				"type": "Point"
			},
			"routableCoordinates": {
				"coordinates": [
					-104.8299390077591,
					41.17268211300173
				],
				"type": "Point"
			},
			"walkableCoordinates": null
		},
		"number": 66
	},
	{
		"brand": {
			"brandId": "66",
			"name": "Albertsons"
		},
		"division": {
			"number": "5",
			"name": "Denver"
		},
		"address": {
			"line1": "2610 S Douglas Hwy",
			"line2": null,
			"city": "Gillette",
			"state": "WY",
			"zipcode": "82718",
			"country": "US",
			"displayCoordinates": {
				"coordinates": [
					-105.4949177,
					44.2705186
				],
				"type": "Point"
			},
			"routableCoordinates": {
				"coordinates": [
					-105.4949177,
					44.2705186
				],
				"type": "Point"
			},
			"walkableCoordinates": null
		},
		"number": 67
	},
	{
		"brand": {
			"brandId": "55",
			"name": "Jewel-Osco"
		},
		"division": {
			"number": "32",
			"name": "JewelOsco"
		},
		"address": {
			"line1": "4 E Ogden Ave",
			"line2": null,
			"city": "Westmont",
			"state": "IL",
			"zipcode": "60559",
			"country": "US",
			"displayCoordinates": {
				"coordinates": [
					-87.9739131,
					41.8113614
				],
				"type": "Point"
			},
			"routableCoordinates": {
				"coordinates": [
					-87.9739131,
					41.8113614
				],
				"type": "Point"
			},
			"walkableCoordinates": null
		},
		"number": 68
	},
	{
		"brand": {
			"brandId": "66",
			"name": "Albertsons"
		},
		"division": {
			"number": "20",
			"name": "Southern"
		},
		"address": {
			"line1": "4000 Glade Rd",
			"line2": null,
			"city": "Colleyville",
			"state": "TX",
			"zipcode": "76034",
			"country": "US",
			"displayCoordinates": {
				"coordinates": [
					-97.1013516,
					32.8826299
				],
				"type": "Point"
			},
			"routableCoordinates": {
				"coordinates": [
					-97.1013516,
					32.8826299
				],
				"type": "Point"
			},
			"walkableCoordinates": null
		},
		"number": 70
	},
	{
		"brand": {
			"brandId": "55",
			"name": "Jewel-Osco"
		},
		"division": {
			"number": "32",
			"name": "JewelOsco"
		},
		"address": {
			"line1": "1276 N Main St",
			"line2": null,
			"city": "Crown Point",
			"state": "IN",
			"zipcode": "46307",
			"country": "US",
			"displayCoordinates": {
				"coordinates": [
					-87.36272871494293,
					41.43195654244668
				],
				"type": "Point"
			},
			"routableCoordinates": {
				"coordinates": [
					-87.36272871494293,
					41.43195654244668
				],
				"type": "Point"
			},
			"walkableCoordinates": null
		},
		"number": 76
	},
	{
		"brand": {
			"brandId": "99",
			"name": "Market Street"
		},
		"division": {
			"number": "15",
			"name": "United"
		},
		"address": {
			"line1": "3121 Sunset Dr",
			"line2": null,
			"city": "San Angelo",
			"state": "TX",
			"zipcode": "76904",
			"country": "US",
			"displayCoordinates": {
				"coordinates": [
					-100.4808137,
					31.4214302
				],
				"type": "Point"
			},
			"routableCoordinates": {
				"coordinates": [
					-100.4808137,
					31.4214302
				],
				"type": "Point"
			},
			"walkableCoordinates": null
		},
		"number": 78
	},
	{
		"brand": {
			"brandId": "55",
			"name": "Jewel-Osco"
		},
		"division": {
			"number": "32",
			"name": "JewelOsco"
		},
		"address": {
			"line1": "2480 Route 59",
			"line2": null,
			"city": "Plainfield",
			"state": "IL",
			"zipcode": "60586",
			"country": "US",
			"displayCoordinates": {
				"coordinates": [
					-88.1980812549591,
					41.56634665832549
				],
				"type": "Point"
			},
			"routableCoordinates": {
				"coordinates": [
					-88.1980812549591,
					41.56634665832549
				],
				"type": "Point"
			},
			"walkableCoordinates": null
		},
		"number": 80
	},
	{
		"brand": {
			"brandId": "55",
			"name": "Jewel-Osco"
		},
		"division": {
			"number": "32",
			"name": "JewelOsco"
		},
		"address": {
			"line1": "3795 Orchard Rd",
			"line2": null,
			"city": "Oswego",
			"state": "IL",
			"zipcode": "60543",
			"country": "US",
			"displayCoordinates": {
				"coordinates": [
					-88.383171,
					41.6835479
				],
				"type": "Point"
			},
			"routableCoordinates": {
				"coordinates": [
					-88.383171,
					41.6835479
				],
				"type": "Point"
			},
			"walkableCoordinates": null
		},
		"number": 81
	},
	{
		"brand": {
			"brandId": "55",
			"name": "Jewel-Osco"
		},
		"division": {
			"number": "32",
			"name": "JewelOsco"
		},
		"address": {
			"line1": "8801 S Ridgeland Ave",
			"line2": null,
			"city": "Oak Lawn",
			"state": "IL",
			"zipcode": "60453",
			"country": "US",
			"displayCoordinates": {
				"coordinates": [
					-87.7789474,
					41.7316522
				],
				"type": "Point"
			},
			"routableCoordinates": {
				"coordinates": [
					-87.7789474,
					41.7316522
				],
				"type": "Point"
			},
			"walkableCoordinates": null
		},
		"number": 86
	},
	{
		"brand": {
			"brandId": "66",
			"name": "Albertsons"
		},
		"division": {
			"number": "17",
			"name": "Southwest"
		},
		"address": {
			"line1": "6885 E Lake Mead Blvd",
			"line2": null,
			"city": "Las Vegas",
			"state": "NV",
			"zipcode": "89156",
			"country": "US",
			"displayCoordinates": {
				"coordinates": [
					-115.0237832,
					36.19465
				],
				"type": "Point"
			},
			"routableCoordinates": {
				"coordinates": [
					-115.0237832,
					36.19465
				],
				"type": "Point"
			},
			"walkableCoordinates": null
		},
		"number": 89
	},
	{
		"brand": {
			"brandId": "66",
			"name": "Albertsons"
		},
		"division": {
			"number": "17",
			"name": "Southwest"
		},
		"address": {
			"line1": "7075 W Ann Rd",
			"line2": null,
			"city": "Las Vegas",
			"state": "NV",
			"zipcode": "89130",
			"country": "US",
			"displayCoordinates": {
				"coordinates": [
					-115.2478945,
					36.2608425
				],
				"type": "Point"
			},
			"routableCoordinates": {
				"coordinates": [
					-115.2478945,
					36.2608425
				],
				"type": "Point"
			},
			"walkableCoordinates": null
		},
		"number": 90
	},
	{
		"brand": {
			"brandId": "1",
			"name": "Safeway"
		},
		"division": {
			"number": "19",
			"name": "Portland"
		},
		"address": {
			"line1": "1227 15th Ave",
			"line2": null,
			"city": "Longview",
			"state": "WA",
			"zipcode": "98632",
			"country": "US",
			"displayCoordinates": {
				"coordinates": [
					-122.9385472,
					46.1367721
				],
				"type": "Point"
			},
			"routableCoordinates": {
				"coordinates": [
					-122.9385472,
					46.1367721
				],
				"type": "Point"
			},
			"walkableCoordinates": null
		},
		"number": 91
	},
	{
		"brand": {
			"brandId": "55",
			"name": "Jewel-Osco"
		},
		"division": {
			"number": "32",
			"name": "JewelOsco"
		},
		"address": {
			"line1": "1655 E 95th St",
			"line2": null,
			"city": "Chicago",
			"state": "IL",
			"zipcode": "60617",
			"country": "US",
			"displayCoordinates": {
				"coordinates": [
					-87.5827119,
					41.7205224
				],
				"type": "Point"
			},
			"routableCoordinates": {
				"coordinates": [
					-87.5827119,
					41.7205224
				],
				"type": "Point"
			},
			"walkableCoordinates": null
		},
		"number": 92
	},
	{
		"brand": {
			"brandId": "66",
			"name": "Albertsons"
		},
		"division": {
			"number": "17",
			"name": "Southwest"
		},
		"address": {
			"line1": "1008 Nevada Hwy",
			"line2": null,
			"city": "Boulder City",
			"state": "NV",
			"zipcode": "89005",
			"country": "US",
			"displayCoordinates": {
				"coordinates": [
					-114.845262,
					35.9760734
				],
				"type": "Point"
			},
			"routableCoordinates": {
				"coordinates": [
					-114.845262,
					35.9760734
				],
				"type": "Point"
			},
			"walkableCoordinates": null
		},
		"number": 93
	},
	{
		"brand": {
			"brandId": "66",
			"name": "Albertsons"
		},
		"division": {
			"number": "30",
			"name": "InterMtn"
		},
		"address": {
			"line1": "1650 W State St",
			"line2": null,
			"city": "Boise",
			"state": "ID",
			"zipcode": "83702",
			"country": "US",
			"displayCoordinates": {
				"coordinates": [
					-116.2093472,
					43.624976
				],
				"type": "Point"
			},
			"routableCoordinates": {
				"coordinates": [
					-116.2093472,
					43.624976
				],
				"type": "Point"
			},
			"walkableCoordinates": null
		},
		"number": 101
	},
	{
		"brand": {
			"brandId": "66",
			"name": "Albertsons"
		},
		"division": {
			"number": "30",
			"name": "InterMtn"
		},
		"address": {
			"line1": "415 Cleveland Blvd",
			"line2": null,
			"city": "Caldwell",
			"state": "ID",
			"zipcode": "83605",
			"country": "US",
			"displayCoordinates": {
				"coordinates": [
					-116.6931092,
					43.6671296
				],
				"type": "Point"
			},
			"routableCoordinates": {
				"coordinates": [
					-116.6931092,
					43.6671296
				],
				"type": "Point"
			},
			"walkableCoordinates": null
		},
		"number": 103
	},
	{
		"brand": {
			"brandId": "1",
			"name": "Safeway"
		},
		"division": {
			"number": "34",
			"name": "Mid-Atlantic"
		},
		"address": {
			"line1": "10 King St",
			"line2": null,
			"city": "Waldorf",
			"state": "MD",
			"zipcode": "20602",
			"country": "US",
			"displayCoordinates": {
				"coordinates": [
					-76.9013519,
					38.6027946
				],
				"type": "Point"
			},
			"routableCoordinates": {
				"coordinates": [
					-76.9013519,
					38.6027946
				],
				"type": "Point"
			},
			"walkableCoordinates": null
		},
		"number": 105
	},
	{
		"brand": {
			"brandId": "66",
			"name": "Albertsons"
		},
		"division": {
			"number": "20",
			"name": "Southern"
		},
		"address": {
			"line1": "1155 N Main St",
			"line2": null,
			"city": "Euless",
			"state": "TX",
			"zipcode": "76039",
			"country": "US",
			"displayCoordinates": {
				"coordinates": [
					-97.0835219,
					32.8534079
				],
				"type": "Point"
			},
			"routableCoordinates": {
				"coordinates": [
					-97.0835219,
					32.8534079
				],
				"type": "Point"
			},
			"walkableCoordinates": null
		},
		"number": 106
	},
	{
		"brand": {
			"brandId": "1",
			"name": "Safeway"
		},
		"division": {
			"number": "34",
			"name": "Mid-Atlantic"
		},
		"address": {
			"line1": "7595 Greenbelt Rd",
			"line2": null,
			"city": "Greenbelt",
			"state": "MD",
			"zipcode": "20770",
			"country": "US",
			"displayCoordinates": {
				"coordinates": [
					-76.87666878865457,
					38.992872474553415
				],
				"type": "Point"
			},
			"routableCoordinates": {
				"coordinates": [
					-76.87666878865457,
					38.992872474553415
				],
				"type": "Point"
			},
			"walkableCoordinates": null
		},
		"number": 107
	},
	{
		"brand": {
			"brandId": "66",
			"name": "Albertsons"
		},
		"division": {
			"number": "29",
			"name": "SoCal"
		},
		"address": {
			"line1": "1735 W Artesia Blvd",
			"line2": null,
			"city": "Gardena",
			"state": "CA",
			"zipcode": "90248",
			"country": "US",
			"displayCoordinates": {
				"coordinates": [
					-118.30826380852159,
					33.87424151748243
				],
				"type": "Point"
			},
			"routableCoordinates": {
				"coordinates": [
					-118.30826380852159,
					33.87424151748243
				],
				"type": "Point"
			},
			"walkableCoordinates": null
		},
		"number": 108
	},
	{
		"brand": {
			"brandId": "66",
			"name": "Albertsons"
		},
		"division": {
			"number": "29",
			"name": "SoCal"
		},
		"address": {
			"line1": "7201 Yorktown Ave",
			"line2": null,
			"city": "Huntington Beach",
			"state": "CA",
			"zipcode": "92648",
			"country": "US",
			"displayCoordinates": {
				"coordinates": [
					-118.00286159680581,
					33.680903264639575
				],
				"type": "Point"
			},
			"routableCoordinates": {
				"coordinates": [
					-118.00286159680581,
					33.680903264639575
				],
				"type": "Point"
			},
			"walkableCoordinates": null
		},
		"number": 110
	},
	{
		"brand": {
			"brandId": "1",
			"name": "Safeway"
		},
		"division": {
			"number": "25",
			"name": "Norcal"
		},
		"address": {
			"line1": "105 Neal St",
			"line2": null,
			"city": "Grass Valley",
			"state": "CA",
			"zipcode": "95945",
			"country": "US",
			"displayCoordinates": {
				"coordinates": [
					-121.06276988983154,
					39.21603345589571
				],
				"type": "Point"
			},
			"routableCoordinates": {
				"coordinates": [
					-121.06276988983154,
					39.21603345589571
				],
				"type": "Point"
			},
			"walkableCoordinates": null
		},
		"number": 111
	},
	{
		"brand": {
			"brandId": "44",
			"name": "Shaws"
		},
		"division": {
			"number": "33",
			"name": "Shaws"
		},
		"address": {
			"line1": "300 Main St",
			"line2": null,
			"city": "Nashua",
			"state": "NH",
			"zipcode": "03060",
			"country": "US",
			"displayCoordinates": {
				"coordinates": [
					-71.4595155,
					42.7535444
				],
				"type": "Point"
			},
			"routableCoordinates": {
				"coordinates": [
					-71.4595155,
					42.7535444
				],
				"type": "Point"
			},
			"walkableCoordinates": null
		},
		"number": 113
	},
	{
		"brand": {
			"brandId": "77",
			"name": "Acme Market"
		},
		"division": {
			"number": "34",
			"name": "Mid-Atlantic"
		},
		"address": {
			"line1": "7010 Germantown Ave",
			"line2": null,
			"city": "Philadelphia",
			"state": "PA",
			"zipcode": "19119",
			"country": "US",
			"displayCoordinates": {
				"coordinates": [
					-75.1895744,
					40.0566437
				],
				"type": "Point"
			},
			"routableCoordinates": {
				"coordinates": [
					-75.1895744,
					40.0566437
				],
				"type": "Point"
			},
			"walkableCoordinates": null
		},
		"number": 114
	},
	{
		"brand": {
			"brandId": "55",
			"name": "Jewel-Osco"
		},
		"division": {
			"number": "32",
			"name": "JewelOsco"
		},
		"address": {
			"line1": "2203 E Oakland Ave",
			"line2": null,
			"city": "Bloomington",
			"state": "IL",
			"zipcode": "61701",
			"country": "US",
			"displayCoordinates": {
				"coordinates": [
					-88.9606192,
					40.472242
				],
				"type": "Point"
			},
			"routableCoordinates": {
				"coordinates": [
					-88.9606192,
					40.472242
				],
				"type": "Point"
			},
			"walkableCoordinates": null
		},
		"number": 116
	},
	{
		"brand": {
			"brandId": "44",
			"name": "Shaws"
		},
		"division": {
			"number": "33",
			"name": "Shaws"
		},
		"address": {
			"line1": "570 Shelburne Rd",
			"line2": null,
			"city": "Burlington",
			"state": "VT",
			"zipcode": "05401",
			"country": "US",
			"displayCoordinates": {
				"coordinates": [
					-73.20698443119909,
					44.44969021153386
				],
				"type": "Point"
			},
			"routableCoordinates": {
				"coordinates": [
					-73.20698443119909,
					44.44969021153386
				],
				"type": "Point"
			},
			"walkableCoordinates": null
		},
		"number": 117
	},
	{
		"brand": {
			"brandId": "66",
			"name": "Albertsons"
		},
		"division": {
			"number": "17",
			"name": "Southwest"
		},
		"address": {
			"line1": "7151 W Craig Rd",
			"line2": null,
			"city": "Las Vegas",
			"state": "NV",
			"zipcode": "89129",
			"country": "US",
			"displayCoordinates": {
				"coordinates": [
					-115.2502838,
					36.2381787
				],
				"type": "Point"
			},
			"routableCoordinates": {
				"coordinates": [
					-115.2502838,
					36.2381787
				],
				"type": "Point"
			},
			"walkableCoordinates": null
		},
		"number": 118
	},
	{
		"brand": {
			"brandId": "66",
			"name": "Albertsons"
		},
		"division": {
			"number": "20",
			"name": "Southern"
		},
		"address": {
			"line1": "2678 Johnston St",
			"line2": null,
			"city": "Lafayette",
			"state": "LA",
			"zipcode": "70503",
			"country": "US",
			"displayCoordinates": {
				"coordinates": [
					-92.0387259,
					30.2088634
				],
				"type": "Point"
			},
			"routableCoordinates": {
				"coordinates": [
					-92.0387259,
					30.2088634
				],
				"type": "Point"
			},
			"walkableCoordinates": null
		},
		"number": 120
	},
	{
		"brand": {
			"brandId": "44",
			"name": "Shaws"
		},
		"division": {
			"number": "33",
			"name": "Shaws"
		},
		"address": {
			"line1": "2 Main St",
			"line2": null,
			"city": "Montpelier",
			"state": "VT",
			"zipcode": "05602",
			"country": "US",
			"displayCoordinates": {
				"coordinates": [
					-72.5775085,
					44.2588542
				],
				"type": "Point"
			},
			"routableCoordinates": {
				"coordinates": [
					-72.5775085,
					44.2588542
				],
				"type": "Point"
			},
			"walkableCoordinates": null
		},
		"number": 121
	},
	{
		"brand": {
			"brandId": "55",
			"name": "Jewel-Osco"
		},
		"division": {
			"number": "32",
			"name": "JewelOsco"
		},
		"address": {
			"line1": "2010 1st St A",
			"line2": null,
			"city": "Moline",
			"state": "IL",
			"zipcode": "61265",
			"country": "US",
			"displayCoordinates": {
				"coordinates": [
					-90.5352622,
					41.4917857
				],
				"type": "Point"
			},
			"routableCoordinates": {
				"coordinates": [
					-90.5352622,
					41.4917857
				],
				"type": "Point"
			},
			"walkableCoordinates": null
		},
		"number": 122
	},
	{
		"brand": {
			"brandId": "55",
			"name": "Jewel-Osco"
		},
		"division": {
			"number": "32",
			"name": "JewelOsco"
		},
		"address": {
			"line1": "7329 S Cass Ave",
			"line2": null,
			"city": "Darien",
			"state": "IL",
			"zipcode": "60561",
			"country": "US",
			"displayCoordinates": {
				"coordinates": [
					-87.9720338,
					41.7538281
				],
				"type": "Point"
			},
			"routableCoordinates": {
				"coordinates": [
					-87.9720338,
					41.7538281
				],
				"type": "Point"
			},
			"walkableCoordinates": null
		},
		"number": 123
	},
	{
		"brand": {
			"brandId": "66",
			"name": "Albertsons"
		},
		"division": {
			"number": "30",
			"name": "InterMtn"
		},
		"address": {
			"line1": "640 Hwy 16",
			"line2": null,
			"city": "Emmett",
			"state": "ID",
			"zipcode": "83617",
			"country": "US",
			"displayCoordinates": {
				"coordinates": [
					-116.4910594,
					43.8623438
				],
				"type": "Point"
			},
			"routableCoordinates": {
				"coordinates": [
					-116.4910594,
					43.8623438
				],
				"type": "Point"
			},
			"walkableCoordinates": null
		},
		"number": 126
	},
	{
		"brand": {
			"brandId": "55",
			"name": "Jewel-Osco"
		},
		"division": {
			"number": "32",
			"name": "JewelOsco"
		},
		"address": {
			"line1": "805 Joliet St",
			"line2": null,
			"city": "Dyer",
			"state": "IN",
			"zipcode": "46311",
			"country": "US",
			"displayCoordinates": {
				"coordinates": [
					-87.5079047,
					41.4947342
				],
				"type": "Point"
			},
			"routableCoordinates": {
				"coordinates": [
					-87.5079047,
					41.4947342
				],
				"type": "Point"
			},
			"walkableCoordinates": null
		},
		"number": 127
	},
	{
		"brand": {
			"brandId": "1",
			"name": "Safeway"
		},
		"division": {
			"number": "34",
			"name": "Mid-Atlantic"
		},
		"address": {
			"line1": "151 Walkers Village Way",
			"line2": null,
			"city": "Walkersville",
			"state": "MD",
			"zipcode": "21793",
			"country": "US",
			"displayCoordinates": {
				"coordinates": [
					-77.341715,
					39.4851073
				],
				"type": "Point"
			},
			"routableCoordinates": {
				"coordinates": [
					-77.341715,
					39.4851073
				],
				"type": "Point"
			},
			"walkableCoordinates": null
		},
		"number": 128
	},
	{
		"brand": {
			"brandId": "66",
			"name": "Albertsons"
		},
		"division": {
			"number": "17",
			"name": "Southwest"
		},
		"address": {
			"line1": "5975 W Tropicana Ave",
			"line2": null,
			"city": "Las Vegas",
			"state": "NV",
			"zipcode": "89103",
			"country": "US",
			"displayCoordinates": {
				"coordinates": [
					-115.2238413,
					36.0988808
				],
				"type": "Point"
			},
			"routableCoordinates": {
				"coordinates": [
					-115.2238413,
					36.0988808
				],
				"type": "Point"
			},
			"walkableCoordinates": null
		},
		"number": 129
	},
	{
		"brand": {
			"brandId": "66",
			"name": "Albertsons"
		},
		"division": {
			"number": "30",
			"name": "InterMtn"
		},
		"address": {
			"line1": "911 N Main St",
			"line2": null,
			"city": "Hailey",
			"state": "ID",
			"zipcode": "83333",
			"country": "US",
			"displayCoordinates": {
				"coordinates": [
					-114.3217069,
					43.5276109
				],
				"type": "Point"
			},
			"routableCoordinates": {
				"coordinates": [
					-114.3217069,
					43.5276109
				],
				"type": "Point"
			},
			"walkableCoordinates": null
		},
		"number": 130
	},
	{
		"brand": {
			"brandId": "66",
			"name": "Albertsons"
		},
		"division": {
			"number": "30",
			"name": "InterMtn"
		},
		"address": {
			"line1": "1410 Westpark Plaza",
			"line2": null,
			"city": "Ontario",
			"state": "OR",
			"zipcode": "97914",
			"country": "US",
			"displayCoordinates": {
				"coordinates": [
					-116.9838772,
					44.0235564
				],
				"type": "Point"
			},
			"routableCoordinates": {
				"coordinates": [
					-116.9838772,
					44.0235564
				],
				"type": "Point"
			},
			"walkableCoordinates": null
		},
		"number": 131
	},
	{
		"brand": {
			"brandId": "66",
			"name": "Albertsons"
		},
		"division": {
			"number": "29",
			"name": "SoCal"
		},
		"address": {
			"line1": "101 E Willow St",
			"line2": null,
			"city": "Long Beach",
			"state": "CA",
			"zipcode": "90806",
			"country": "US",
			"displayCoordinates": {
				"coordinates": [
					-118.19230003802875,
					33.805611000000006
				],
				"type": "Point"
			},
			"routableCoordinates": {
				"coordinates": [
					-118.19230003802875,
					33.805611000000006
				],
				"type": "Point"
			},
			"walkableCoordinates": null
		},
		"number": 132
	},
	{
		"brand": {
			"brandId": "15",
			"name": "United Supermarkets"
		},
		"division": {
			"number": "15",
			"name": "United"
		},
		"address": {
			"line1": "3400 River Rd",
			"line2": null,
			"city": "Amarillo",
			"state": "TX",
			"zipcode": "79107",
			"country": "US",
			"displayCoordinates": {
				"coordinates": [
					-101.8295821,
					35.2482348
				],
				"type": "Point"
			},
			"routableCoordinates": {
				"coordinates": [
					-101.8295821,
					35.2482348
				],
				"type": "Point"
			},
			"walkableCoordinates": null
		},
		"number": 133
	},
	{
		"brand": {
			"brandId": "66",
			"name": "Albertsons"
		},
		"division": {
			"number": "20",
			"name": "Southern"
		},
		"address": {
			"line1": "4415 W 7th St",
			"line2": null,
			"city": "Texarkana",
			"state": "TX",
			"zipcode": "75501",
			"country": "US",
			"displayCoordinates": {
				"coordinates": [
					-94.0992644,
					33.4170691
				],
				"type": "Point"
			},
			"routableCoordinates": {
				"coordinates": [
					-94.0992644,
					33.4170691
				],
				"type": "Point"
			},
			"walkableCoordinates": null
		},
		"number": 135
	},
	{
		"brand": {
			"brandId": "1",
			"name": "Safeway"
		},
		"division": {
			"number": "5",
			"name": "Denver"
		},
		"address": {
			"line1": "12200 E Mississippi Ave",
			"line2": null,
			"city": "Aurora",
			"state": "CO",
			"zipcode": "80012",
			"country": "US",
			"displayCoordinates": {
				"coordinates": [
					-104.84539220441548,
					39.6959277207943
				],
				"type": "Point"
			},
			"routableCoordinates": {
				"coordinates": [
					-104.84539220441548,
					39.6959277207943
				],
				"type": "Point"
			},
			"walkableCoordinates": null
		},
		"number": 137
	},
	{
		"brand": {
			"brandId": "66",
			"name": "Albertsons"
		},
		"division": {
			"number": "30",
			"name": "InterMtn"
		},
		"address": {
			"line1": "590 E 17th St",
			"line2": null,
			"city": "Idaho Falls",
			"state": "ID",
			"zipcode": "83404",
			"country": "US",
			"displayCoordinates": {
				"coordinates": [
					-112.0213797,
					43.4814262
				],
				"type": "Point"
			},
			"routableCoordinates": {
				"coordinates": [
					-112.0213797,
					43.4814262
				],
				"type": "Point"
			},
			"walkableCoordinates": null
		},
		"number": 138
	},
	{
		"brand": {
			"brandId": "66",
			"name": "Albertsons"
		},
		"division": {
			"number": "29",
			"name": "SoCal"
		},
		"address": {
			"line1": "7676 Firestone Blvd",
			"line2": null,
			"city": "Downey",
			"state": "CA",
			"zipcode": "90241",
			"country": "US",
			"displayCoordinates": {
				"coordinates": [
					-118.1443252,
					33.9455223
				],
				"type": "Point"
			},
			"routableCoordinates": {
				"coordinates": [
					-118.1443252,
					33.9455223
				],
				"type": "Point"
			},
			"walkableCoordinates": null
		},
		"number": 140
	},
	{
		"brand": {
			"brandId": "66",
			"name": "Lucky"
		},
		"division": {
			"number": "29",
			"name": "SoCal"
		},
		"address": {
			"line1": "4155 Tweedy Blvd",
			"line2": null,
			"city": "South Gate",
			"state": "CA",
			"zipcode": "90280",
			"country": "US",
			"displayCoordinates": {
				"coordinates": [
					-118.19900484415484,
					33.94433487820724
				],
				"type": "Point"
			},
			"routableCoordinates": {
				"coordinates": [
					-118.19900484415484,
					33.94433487820724
				],
				"type": "Point"
			},
			"walkableCoordinates": null
		},
		"number": 142
	},
	{
		"brand": {
			"brandId": "66",
			"name": "Albertsons"
		},
		"division": {
			"number": "30",
			"name": "InterMtn"
		},
		"address": {
			"line1": "1705 W Broadway St",
			"line2": null,
			"city": "Idaho Falls",
			"state": "ID",
			"zipcode": "83402",
			"country": "US",
			"displayCoordinates": {
				"coordinates": [
					-112.06496371887624,
					43.495851222593274
				],
				"type": "Point"
			},
			"routableCoordinates": {
				"coordinates": [
					-112.06496371887624,
					43.495851222593274
				],
				"type": "Point"
			},
			"walkableCoordinates": null
		},
		"number": 145
	},
	{
		"brand": {
			"brandId": "15",
			"name": "United Supermarkets"
		},
		"division": {
			"number": "15",
			"name": "United"
		},
		"address": {
			"line1": "202 N Main St",
			"line2": null,
			"city": "Seymour",
			"state": "TX",
			"zipcode": "76380",
			"country": "US",
			"displayCoordinates": {
				"coordinates": [
					-99.2599593,
					33.5894967
				],
				"type": "Point"
			},
			"routableCoordinates": {
				"coordinates": [
					-99.2599593,
					33.5894967
				],
				"type": "Point"
			},
			"walkableCoordinates": null
		},
		"number": 146
	},
	{
		"brand": {
			"brandId": "77",
			"name": "Acme Market"
		},
		"division": {
			"number": "34",
			"name": "Mid-Atlantic"
		},
		"address": {
			"line1": "920 Red Lion Rd",
			"line2": null,
			"city": "Philadelphia",
			"state": "PA",
			"zipcode": "19115",
			"country": "US",
			"displayCoordinates": {
				"coordinates": [
					-75.0268357,
					40.1006633
				],
				"type": "Point"
			},
			"routableCoordinates": {
				"coordinates": [
					-75.0268357,
					40.1006633
				],
				"type": "Point"
			},
			"walkableCoordinates": null
		},
		"number": 147
	},
	{
		"brand": {
			"brandId": "66",
			"name": "Albertsons"
		},
		"division": {
			"number": "29",
			"name": "SoCal"
		},
		"address": {
			"line1": "15200 Rosecrans Ave",
			"line2": null,
			"city": "La Mirada",
			"state": "CA",
			"zipcode": "90638",
			"country": "US",
			"displayCoordinates": {
				"coordinates": [
					-118.0076283,
					33.8972511
				],
				"type": "Point"
			},
			"routableCoordinates": {
				"coordinates": [
					-118.0076283,
					33.8972511
				],
				"type": "Point"
			},
			"walkableCoordinates": null
		},
		"number": 148
	},
	{
		"brand": {
			"brandId": "1",
			"name": "Safeway"
		},
		"division": {
			"number": "27",
			"name": "Seattle"
		},
		"address": {
			"line1": "1610 W Lincoln Ave",
			"line2": null,
			"city": "Yakima",
			"state": "WA",
			"zipcode": "98902",
			"country": "US",
			"displayCoordinates": {
				"coordinates": [
					-120.53237681401674,
					46.602507761209374
				],
				"type": "Point"
			},
			"routableCoordinates": {
				"coordinates": [
					-120.53237681401674,
					46.602507761209374
				],
				"type": "Point"
			},
			"walkableCoordinates": null
		},
		"number": 149
	},
	{
		"brand": {
			"brandId": "15",
			"name": "United Supermarkets"
		},
		"division": {
			"number": "15",
			"name": "United"
		},
		"address": {
			"line1": "2160 Pine St",
			"line2": null,
			"city": "Abilene",
			"state": "TX",
			"zipcode": "79601",
			"country": "US",
			"displayCoordinates": {
				"coordinates": [
					-99.7318435,
					32.4738952
				],
				"type": "Point"
			},
			"routableCoordinates": {
				"coordinates": [
					-99.7318435,
					32.4738952
				],
				"type": "Point"
			},
			"walkableCoordinates": null
		},
		"number": 150
	},
	{
		"brand": {
			"brandId": "15",
			"name": "United Supermarkets"
		},
		"division": {
			"number": "15",
			"name": "United"
		},
		"address": {
			"line1": "1207 W Walker St",
			"line2": null,
			"city": "Breckenridge",
			"state": "TX",
			"zipcode": "76424",
			"country": "US",
			"displayCoordinates": {
				"coordinates": [
					-98.9178478,
					32.7549345
				],
				"type": "Point"
			},
			"routableCoordinates": {
				"coordinates": [
					-98.9178478,
					32.7549345
				],
				"type": "Point"
			},
			"walkableCoordinates": null
		},
		"number": 152
	},
	{
		"brand": {
			"brandId": "66",
			"name": "Albertsons"
		},
		"division": {
			"number": "30",
			"name": "InterMtn"
		},
		"address": {
			"line1": "1520 N Cole Rd",
			"line2": null,
			"city": "Boise",
			"state": "ID",
			"zipcode": "83704",
			"country": "US",
			"displayCoordinates": {
				"coordinates": [
					-116.27279789778186,
					43.61817088887064
				],
				"type": "Point"
			},
			"routableCoordinates": {
				"coordinates": [
					-116.27279789778186,
					43.61817088887064
				],
				"type": "Point"
			},
			"walkableCoordinates": null
		},
		"number": 154
	},
	{
		"brand": {
			"brandId": "66",
			"name": "Albertsons"
		},
		"division": {
			"number": "30",
			"name": "InterMtn"
		},
		"address": {
			"line1": "2582 Idaho St",
			"line2": null,
			"city": "Elko",
			"state": "NV",
			"zipcode": "89801",
			"country": "US",
			"displayCoordinates": {
				"coordinates": [
					-115.7430036,
					40.8516558
				],
				"type": "Point"
			},
			"routableCoordinates": {
				"coordinates": [
					-115.7430036,
					40.8516558
				],
				"type": "Point"
			},
			"walkableCoordinates": null
		},
		"number": 155
	},
	{
		"brand": {
			"brandId": "66",
			"name": "Albertsons"
		},
		"division": {
			"number": "30",
			"name": "InterMtn"
		},
		"address": {
			"line1": "7100 W State St",
			"line2": null,
			"city": "Boise",
			"state": "ID",
			"zipcode": "83714",
			"country": "US",
			"displayCoordinates": {
				"coordinates": [
					-116.2778334,
					43.6687496
				],
				"type": "Point"
			},
			"routableCoordinates": {
				"coordinates": [
					-116.2778334,
					43.6687496
				],
				"type": "Point"
			},
			"walkableCoordinates": null
		},
		"number": 156
	},
	{
		"brand": {
			"brandId": "55",
			"name": "Jewel-Osco"
		},
		"division": {
			"number": "32",
			"name": "JewelOsco"
		},
		"address": {
			"line1": "4650 W 103rd St",
			"line2": null,
			"city": "Oak Lawn",
			"state": "IL",
			"zipcode": "60453",
			"country": "US",
			"displayCoordinates": {
				"coordinates": [
					-87.7373196,
					41.7065257
				],
				"type": "Point"
			},
			"routableCoordinates": {
				"coordinates": [
					-87.7373196,
					41.7065257
				],
				"type": "Point"
			},
			"walkableCoordinates": null
		},
		"number": 157
	},
	{
		"brand": {
			"brandId": "66",
			"name": "Albertsons"
		},
		"division": {
			"number": "29",
			"name": "SoCal"
		},
		"address": {
			"line1": "1800 W Whittier Blvd",
			"line2": null,
			"city": "La Habra",
			"state": "CA",
			"zipcode": "90631",
			"country": "US",
			"displayCoordinates": {
				"coordinates": [
					-117.966168,
					33.9386298
				],
				"type": "Point"
			},
			"routableCoordinates": {
				"coordinates": [
					-117.966168,
					33.9386298
				],
				"type": "Point"
			},
			"walkableCoordinates": null
		},
		"number": 158
	},
	{
		"brand": {
			"brandId": "66",
			"name": "Albertsons"
		},
		"division": {
			"number": "30",
			"name": "InterMtn"
		},
		"address": {
			"line1": "330 E Benton St",
			"line2": null,
			"city": "Pocatello",
			"state": "ID",
			"zipcode": "83201",
			"country": "US",
			"displayCoordinates": {
				"coordinates": [
					-112.4428666,
					42.8625509
				],
				"type": "Point"
			},
			"routableCoordinates": {
				"coordinates": [
					-112.4428666,
					42.8625509
				],
				"type": "Point"
			},
			"walkableCoordinates": null
		},
		"number": 159
	},
	{
		"brand": {
			"brandId": "66",
			"name": "Albertsons"
		},
		"division": {
			"number": "30",
			"name": "InterMtn"
		},
		"address": {
			"line1": "10500 W Overland Rd",
			"line2": null,
			"city": "Boise",
			"state": "ID",
			"zipcode": "83709",
			"country": "US",
			"displayCoordinates": {
				"coordinates": [
					-116.313324,
					43.5915561
				],
				"type": "Point"
			},
			"routableCoordinates": {
				"coordinates": [
					-116.313324,
					43.5915561
				],
				"type": "Point"
			},
			"walkableCoordinates": null
		},
		"number": 160
	},
	{
		"brand": {
			"brandId": "66",
			"name": "Albertsons"
		},
		"division": {
			"number": "30",
			"name": "InterMtn"
		},
		"address": {
			"line1": "10700 W Ustick Rd",
			"line2": null,
			"city": "Boise",
			"state": "ID",
			"zipcode": "83713",
			"country": "US",
			"displayCoordinates": {
				"coordinates": [
					-116.3159018,
					43.6344849
				],
				"type": "Point"
			},
			"routableCoordinates": {
				"coordinates": [
					-116.3159018,
					43.6344849
				],
				"type": "Point"
			},
			"walkableCoordinates": null
		},
		"number": 161
	},
	{
		"brand": {
			"brandId": "66",
			"name": "Albertsons"
		},
		"division": {
			"number": "30",
			"name": "InterMtn"
		},
		"address": {
			"line1": "5100 W Overland Rd",
			"line2": null,
			"city": "Boise",
			"state": "ID",
			"zipcode": "83705",
			"country": "US",
			"displayCoordinates": {
				"coordinates": [
					-116.2451833,
					43.5917967
				],
				"type": "Point"
			},
			"routableCoordinates": {
				"coordinates": [
					-116.2451833,
					43.5917967
				],
				"type": "Point"
			},
			"walkableCoordinates": null
		},
		"number": 162
	},
	{
		"brand": {
			"brandId": "33",
			"name": "Star Market"
		},
		"division": {
			"number": "33",
			"name": "Shaws"
		},
		"address": {
			"line1": "49 White St",
			"line2": null,
			"city": "Cambridge",
			"state": "MA",
			"zipcode": "02140",
			"country": "US",
			"displayCoordinates": {
				"coordinates": [
					-71.1177825,
					42.3899832
				],
				"type": "Point"
			},
			"routableCoordinates": {
				"coordinates": [
					-71.1177825,
					42.3899832
				],
				"type": "Point"
			},
			"walkableCoordinates": null
		},
		"number": 163
	},
	{
		"brand": {
			"brandId": "66",
			"name": "Albertsons"
		},
		"division": {
			"number": "30",
			"name": "InterMtn"
		},
		"address": {
			"line1": "20 E Fairview Ave",
			"line2": null,
			"city": "Meridian",
			"state": "ID",
			"zipcode": "83642",
			"country": "US",
			"displayCoordinates": {
				"coordinates": [
					-116.3927727,
					43.6206198
				],
				"type": "Point"
			},
			"routableCoordinates": {
				"coordinates": [
					-116.3927727,
					43.6206198
				],
				"type": "Point"
			},
			"walkableCoordinates": null
		},
		"number": 164
	},
	{
		"brand": {
			"brandId": "66",
			"name": "Albertsons"
		},
		"division": {
			"number": "30",
			"name": "InterMtn"
		},
		"address": {
			"line1": "528 N Main St",
			"line2": null,
			"city": "Mountain Home",
			"state": "ID",
			"zipcode": "83647",
			"country": "US",
			"displayCoordinates": {
				"coordinates": [
					-115.6969516,
					43.1348333
				],
				"type": "Point"
			},
			"routableCoordinates": {
				"coordinates": [
					-115.6969516,
					43.1348333
				],
				"type": "Point"
			},
			"walkableCoordinates": null
		},
		"number": 165
	},
	{
		"brand": {
			"brandId": "66",
			"name": "Albertsons"
		},
		"division": {
			"number": "30",
			"name": "InterMtn"
		},
		"address": {
			"line1": "2500 Blaine St",
			"line2": null,
			"city": "Caldwell",
			"state": "ID",
			"zipcode": "83605",
			"country": "US",
			"displayCoordinates": {
				"coordinates": [
					-116.6707179,
					43.6522733
				],
				"type": "Point"
			},
			"routableCoordinates": {
				"coordinates": [
					-116.6707179,
					43.6522733
				],
				"type": "Point"
			},
			"walkableCoordinates": null
		},
		"number": 166
	},
	{
		"brand": {
			"brandId": "15",
			"name": "United Supermarkets"
		},
		"division": {
			"number": "15",
			"name": "United"
		},
		"address": {
			"line1": "521 S Access Rd W",
			"line2": null,
			"city": "Clyde",
			"state": "TX",
			"zipcode": "79510",
			"country": "US",
			"displayCoordinates": {
				"coordinates": [
					-99.4918374,
					32.4110004
				],
				"type": "Point"
			},
			"routableCoordinates": {
				"coordinates": [
					-99.4918374,
					32.4110004
				],
				"type": "Point"
			},
			"walkableCoordinates": null
		},
		"number": 167
	},
	{
		"brand": {
			"brandId": "66",
			"name": "Albertsons"
		},
		"division": {
			"number": "30",
			"name": "InterMtn"
		},
		"address": {
			"line1": "405 S Main St",
			"line2": null,
			"city": "Payette",
			"state": "ID",
			"zipcode": "83661",
			"country": "US",
			"displayCoordinates": {
				"coordinates": [
					-116.9340991973877,
					44.07016242405431
				],
				"type": "Point"
			},
			"routableCoordinates": {
				"coordinates": [
					-116.9340991973877,
					44.07016242405431
				],
				"type": "Point"
			},
			"walkableCoordinates": null
		},
		"number": 168
	},
	{
		"brand": {
			"brandId": "66",
			"name": "Albertsons"
		},
		"division": {
			"number": "30",
			"name": "InterMtn"
		},
		"address": {
			"line1": "909 E Parkcenter Blvd",
			"line2": null,
			"city": "Boise",
			"state": "ID",
			"zipcode": "83706",
			"country": "US",
			"displayCoordinates": {
				"coordinates": [
					-116.1722098,
					43.5810094
				],
				"type": "Point"
			},
			"routableCoordinates": {
				"coordinates": [
					-116.1722098,
					43.5810094
				],
				"type": "Point"
			},
			"walkableCoordinates": null
		},
		"number": 169
	},
	{
		"brand": {
			"brandId": "66",
			"name": "Albertsons"
		},
		"division": {
			"number": "29",
			"name": "SoCal"
		},
		"address": {
			"line1": "18579 Brookhurst",
			"line2": null,
			"city": "Fountain Valley",
			"state": "CA",
			"zipcode": "92708",
			"country": "US",
			"displayCoordinates": {
				"coordinates": [
					-117.9561257,
					33.6930271
				],
				"type": "Point"
			},
			"routableCoordinates": {
				"coordinates": [
					-117.9561257,
					33.6930271
				],
				"type": "Point"
			},
			"walkableCoordinates": null
		},
		"number": 170
	},
	{
		"brand": {
			"brandId": "66",
			"name": "Albertsons"
		},
		"division": {
			"number": "30",
			"name": "InterMtn"
		},
		"address": {
			"line1": "490 N 2nd E",
			"line2": null,
			"city": "Rexburg",
			"state": "ID",
			"zipcode": "83440",
			"country": "US",
			"displayCoordinates": {
				"coordinates": [
					-111.7754723,
					43.8364017
				],
				"type": "Point"
			},
			"routableCoordinates": {
				"coordinates": [
					-111.7754723,
					43.8364017
				],
				"type": "Point"
			},
			"walkableCoordinates": null
		},
		"number": 171
	},
	{
		"brand": {
			"brandId": "15",
			"name": "United Supermarkets"
		},
		"division": {
			"number": "15",
			"name": "United"
		},
		"address": {
			"line1": "111 SE 2nd St",
			"line2": null,
			"city": "Seminole",
			"state": "TX",
			"zipcode": "79360",
			"country": "US",
			"displayCoordinates": {
				"coordinates": [
					-102.64350875280797,
					32.718453141207966
				],
				"type": "Point"
			},
			"routableCoordinates": {
				"coordinates": [
					-102.64350875280797,
					32.718453141207966
				],
				"type": "Point"
			},
			"walkableCoordinates": null
		},
		"number": 172
	},
	{
		"brand": {
			"brandId": "1",
			"name": "Safeway"
		},
		"division": {
			"number": "25",
			"name": "Norcal"
		},
		"address": {
			"line1": "900 Lighthouse Ave",
			"line2": null,
			"city": "Monterey",
			"state": "CA",
			"zipcode": "93940",
			"country": "US",
			"displayCoordinates": {
				"coordinates": [
					-121.903486,
					36.617805
				],
				"type": "Point"
			},
			"routableCoordinates": {
				"coordinates": [
					-121.903486,
					36.617805
				],
				"type": "Point"
			},
			"walkableCoordinates": null
		},
		"number": 173
	},
	{
		"brand": {
			"brandId": "1",
			"name": "Safeway"
		},
		"division": {
			"number": "17",
			"name": "Southwest"
		},
		"address": {
			"line1": "520 W Osborn Rd",
			"line2": null,
			"city": "Phoenix",
			"state": "AZ",
			"zipcode": "85013",
			"country": "US",
			"displayCoordinates": {
				"coordinates": [
					-112.0816908,
					33.4885441
				],
				"type": "Point"
			},
			"routableCoordinates": {
				"coordinates": [
					-112.0816908,
					33.4885441
				],
				"type": "Point"
			},
			"walkableCoordinates": null
		},
		"number": 174
	},
	{
		"brand": {
			"brandId": "66",
			"name": "Albertsons"
		},
		"division": {
			"number": "30",
			"name": "InterMtn"
		},
		"address": {
			"line1": "2400 12th Ave Rd",
			"line2": null,
			"city": "Nampa",
			"state": "ID",
			"zipcode": "83686",
			"country": "US",
			"displayCoordinates": {
				"coordinates": [
					-116.5717236,
					43.5456981
				],
				"type": "Point"
			},
			"routableCoordinates": {
				"coordinates": [
					-116.5717236,
					43.5456981
				],
				"type": "Point"
			},
			"walkableCoordinates": null
		},
		"number": 176
	},
	{
		"brand": {
			"brandId": "66",
			"name": "Albertsons"
		},
		"division": {
			"number": "30",
			"name": "InterMtn"
		},
		"address": {
			"line1": "4700 N Eagle Rd",
			"line2": null,
			"city": "Boise",
			"state": "ID",
			"zipcode": "83713",
			"country": "US",
			"displayCoordinates": {
				"coordinates": [
					-116.35208666324621,
					43.64735255830925
				],
				"type": "Point"
			},
			"routableCoordinates": {
				"coordinates": [
					-116.35208666324621,
					43.64735255830925
				],
				"type": "Point"
			},
			"walkableCoordinates": null
		},
		"number": 177
	},
	{
		"brand": {
			"brandId": "66",
			"name": "Albertsons"
		},
		"division": {
			"number": "30",
			"name": "InterMtn"
		},
		"address": {
			"line1": "3301 W Cherry Ln",
			"line2": null,
			"city": "Meridian",
			"state": "ID",
			"zipcode": "83642",
			"country": "US",
			"displayCoordinates": {
				"coordinates": [
					-116.4343584,
					43.6182497
				],
				"type": "Point"
			},
			"routableCoordinates": {
				"coordinates": [
					-116.4343584,
					43.6182497
				],
				"type": "Point"
			},
			"walkableCoordinates": null
		},
		"number": 180
	},
	{
		"brand": {
			"brandId": "66",
			"name": "Albertsons"
		},
		"division": {
			"number": "30",
			"name": "InterMtn"
		},
		"address": {
			"line1": "250 S Eagle Rd",
			"line2": null,
			"city": "Eagle",
			"state": "ID",
			"zipcode": "83616",
			"country": "US",
			"displayCoordinates": {
				"coordinates": [
					-116.352447,
					43.6923867
				],
				"type": "Point"
			},
			"routableCoordinates": {
				"coordinates": [
					-116.352447,
					43.6923867
				],
				"type": "Point"
			},
			"walkableCoordinates": null
		},
		"number": 182
	},
	{
		"brand": {
			"brandId": "66",
			"name": "Albertsons"
		},
		"division": {
			"number": "30",
			"name": "InterMtn"
		},
		"address": {
			"line1": "105 Buffalo Way",
			"line2": null,
			"city": "Jackson",
			"state": "WY",
			"zipcode": "83001",
			"country": "US",
			"displayCoordinates": {
				"coordinates": [
					-110.7893977,
					43.4723865
				],
				"type": "Point"
			},
			"routableCoordinates": {
				"coordinates": [
					-110.7893977,
					43.4723865
				],
				"type": "Point"
			},
			"walkableCoordinates": null
		},
		"number": 183
	},
	{
		"brand": {
			"brandId": "66",
			"name": "Albertsons"
		},
		"division": {
			"number": "30",
			"name": "InterMtn"
		},
		"address": {
			"line1": "6560 S Federal Way",
			"line2": null,
			"city": "Boise",
			"state": "ID",
			"zipcode": "83716",
			"country": "US",
			"displayCoordinates": {
				"coordinates": [
					-116.1533885,
					43.5428789
				],
				"type": "Point"
			},
			"routableCoordinates": {
				"coordinates": [
					-116.1533885,
					43.5428789
				],
				"type": "Point"
			},
			"walkableCoordinates": null
		},
		"number": 184
	},
	{
		"brand": {
			"brandId": "55",
			"name": "Jewel-Osco"
		},
		"division": {
			"number": "32",
			"name": "JewelOsco"
		},
		"address": {
			"line1": "127 E Ogden Ave",
			"line2": null,
			"city": "Naperville",
			"state": "IL",
			"zipcode": "60563",
			"country": "US",
			"displayCoordinates": {
				"coordinates": [
					-88.1452237,
					41.7867206
				],
				"type": "Point"
			},
			"routableCoordinates": {
				"coordinates": [
					-88.1452237,
					41.7867206
				],
				"type": "Point"
			},
			"walkableCoordinates": null
		},
		"number": 185
	},
	{
		"brand": {
			"brandId": "1",
			"name": "Safeway"
		},
		"division": {
			"number": "27",
			"name": "Seattle"
		},
		"address": {
			"line1": "8196 NE Hwy 104",
			"line2": null,
			"city": "Kingston",
			"state": "WA",
			"zipcode": "98346",
			"country": "US",
			"displayCoordinates": {
				"coordinates": [
					-122.5406391,
					47.8115701
				],
				"type": "Point"
			},
			"routableCoordinates": {
				"coordinates": [
					-122.5406391,
					47.8115701
				],
				"type": "Point"
			},
			"walkableCoordinates": null
		},
		"number": 186
	},
	{
		"brand": {
			"brandId": "55",
			"name": "Jewel-Osco"
		},
		"division": {
			"number": "32",
			"name": "JewelOsco"
		},
		"address": {
			"line1": "11730 S Marshfield Ave",
			"line2": null,
			"city": "Chicago",
			"state": "IL",
			"zipcode": "60643",
			"country": "US",
			"displayCoordinates": {
				"coordinates": [
					-87.6641029,
					41.6804615
				],
				"type": "Point"
			},
			"routableCoordinates": {
				"coordinates": [
					-87.6641029,
					41.6804615
				],
				"type": "Point"
			},
			"walkableCoordinates": null
		},
		"number": 187
	},
	{
		"brand": {
			"brandId": "66",
			"name": "Albertsons"
		},
		"division": {
			"number": "30",
			"name": "InterMtn"
		},
		"address": {
			"line1": "3614 W State St",
			"line2": null,
			"city": "Boise",
			"state": "ID",
			"zipcode": "83703",
			"country": "US",
			"displayCoordinates": {
				"coordinates": [
					-116.23270557091928,
					43.640173065047925
				],
				"type": "Point"
			},
			"routableCoordinates": {
				"coordinates": [
					-116.23270557091928,
					43.640173065047925
				],
				"type": "Point"
			},
			"walkableCoordinates": null
		},
		"number": 189
	},
	{
		"brand": {
			"brandId": "1",
			"name": "Safeway"
		},
		"division": {
			"number": "25",
			"name": "Norcal"
		},
		"address": {
			"line1": "424 Howe Ave",
			"line2": null,
			"city": "Sacramento",
			"state": "CA",
			"zipcode": "95825",
			"country": "US",
			"displayCoordinates": {
				"coordinates": [
					-121.41322110945566,
					38.57329599713887
				],
				"type": "Point"
			},
			"routableCoordinates": {
				"coordinates": [
					-121.41322110945566,
					38.57329599713887
				],
				"type": "Point"
			},
			"walkableCoordinates": null
		},
		"number": 190
	},
	{
		"brand": {
			"brandId": "66",
			"name": "Albertsons"
		},
		"division": {
			"number": "29",
			"name": "SoCal"
		},
		"address": {
			"line1": "5015 Del Amo Blvd",
			"line2": null,
			"city": "Lakewood",
			"state": "CA",
			"zipcode": "90712",
			"country": "US",
			"displayCoordinates": {
				"coordinates": [
					-118.1343501,
					33.8478041
				],
				"type": "Point"
			},
			"routableCoordinates": {
				"coordinates": [
					-118.1343501,
					33.8478041
				],
				"type": "Point"
			},
			"walkableCoordinates": null
		},
		"number": 191
	},
	{
		"brand": {
			"brandId": "77",
			"name": "Acme Market"
		},
		"division": {
			"number": "34",
			"name": "Mid-Atlantic"
		},
		"address": {
			"line1": "39 Leopard Rd",
			"line2": null,
			"city": "Paoli",
			"state": "PA",
			"zipcode": "19301",
			"country": "US",
			"displayCoordinates": {
				"coordinates": [
					-75.477119,
					40.0398415
				],
				"type": "Point"
			},
			"routableCoordinates": {
				"coordinates": [
					-75.477119,
					40.0398415
				],
				"type": "Point"
			},
			"walkableCoordinates": null
		},
		"number": 192
	},
	{
		"brand": {
			"brandId": "66",
			"name": "Albertsons"
		},
		"division": {
			"number": "30",
			"name": "InterMtn"
		},
		"address": {
			"line1": "1653 S Vista Ave",
			"line2": null,
			"city": "Boise",
			"state": "ID",
			"zipcode": "83705",
			"country": "US",
			"displayCoordinates": {
				"coordinates": [
					-116.2151779,
					43.5891582
				],
				"type": "Point"
			},
			"routableCoordinates": {
				"coordinates": [
					-116.2151779,
					43.5891582
				],
				"type": "Point"
			},
			"walkableCoordinates": null
		},
		"number": 193
	},
	{
		"brand": {
			"brandId": "66",
			"name": "Albertsons"
		},
		"division": {
			"number": "29",
			"name": "SoCal"
		},
		"address": {
			"line1": "810 S State College Blvd",
			"line2": null,
			"city": "Anaheim",
			"state": "CA",
			"zipcode": "92806",
			"country": "US",
			"displayCoordinates": {
				"coordinates": [
					-117.8885277,
					33.8311732
				],
				"type": "Point"
			},
			"routableCoordinates": {
				"coordinates": [
					-117.8885277,
					33.8311732
				],
				"type": "Point"
			},
			"walkableCoordinates": null
		},
		"number": 194
	},
	{
		"brand": {
			"brandId": "66",
			"name": "Albertsons"
		},
		"division": {
			"number": "17",
			"name": "Southwest"
		},
		"address": {
			"line1": "11475 E Via Linda",
			"line2": null,
			"city": "Scottsdale",
			"state": "AZ",
			"zipcode": "85259",
			"country": "US",
			"displayCoordinates": {
				"coordinates": [
					-111.8341614,
					33.5890258
				],
				"type": "Point"
			},
			"routableCoordinates": {
				"coordinates": [
					-111.8341614,
					33.5890258
				],
				"type": "Point"
			},
			"walkableCoordinates": null
		},
		"number": 197
	},
	{
		"brand": {
			"brandId": "66",
			"name": "Albertsons"
		},
		"division": {
			"number": "30",
			"name": "InterMtn"
		},
		"address": {
			"line1": "1219 S Broadway Ave",
			"line2": null,
			"city": "Boise",
			"state": "ID",
			"zipcode": "83706",
			"country": "US",
			"displayCoordinates": {
				"coordinates": [
					-116.19567507196655,
					43.5980054774272
				],
				"type": "Point"
			},
			"routableCoordinates": {
				"coordinates": [
					-116.19567507196655,
					43.5980054774272
				],
				"type": "Point"
			},
			"walkableCoordinates": null
		},
		"number": 199
	},
	{
		"brand": {
			"brandId": "55",
			"name": "Jewel-Osco"
		},
		"division": {
			"number": "32",
			"name": "JewelOsco"
		},
		"address": {
			"line1": "2550 N Clybourn Ave",
			"line2": null,
			"city": "Chicago",
			"state": "IL",
			"zipcode": "60614",
			"country": "US",
			"displayCoordinates": {
				"coordinates": [
					-87.674309,
					41.9272358
				],
				"type": "Point"
			},
			"routableCoordinates": {
				"coordinates": [
					-87.674309,
					41.9272358
				],
				"type": "Point"
			},
			"walkableCoordinates": null
		},
		"number": 202
	},
	{
		"brand": {
			"brandId": "1",
			"name": "Safeway"
		},
		"division": {
			"number": "25",
			"name": "Norcal"
		},
		"address": {
			"line1": "1360 Pali Hwy",
			"line2": null,
			"city": "Honolulu",
			"state": "HI",
			"zipcode": "96813",
			"country": "US",
			"displayCoordinates": {
				"coordinates": [
					-157.85783802325113,
					21.313344636359
				],
				"type": "Point"
			},
			"routableCoordinates": {
				"coordinates": [
					-157.85783802325113,
					21.313344636359
				],
				"type": "Point"
			},
			"walkableCoordinates": null
		},
		"number": 203
	},
	{
		"brand": {
			"brandId": "1",
			"name": "Safeway"
		},
		"division": {
			"number": "25",
			"name": "Norcal"
		},
		"address": {
			"line1": "2855 E Manoa Rd",
			"line2": null,
			"city": "Honolulu",
			"state": "HI",
			"zipcode": "96822",
			"country": "US",
			"displayCoordinates": {
				"coordinates": [
					-157.8103032,
					21.309004
				],
				"type": "Point"
			},
			"routableCoordinates": {
				"coordinates": [
					-157.8103032,
					21.309004
				],
				"type": "Point"
			},
			"walkableCoordinates": null
		},
		"number": 204
	},
	{
		"brand": {
			"brandId": "1",
			"name": "Safeway"
		},
		"division": {
			"number": "25",
			"name": "Norcal"
		},
		"address": {
			"line1": "1060 Keolu Dr",
			"line2": null,
			"city": "Kailua",
			"state": "HI",
			"zipcode": "96734",
			"country": "US",
			"displayCoordinates": {
				"coordinates": [
					-157.72928779179438,
					21.377204130098026
				],
				"type": "Point"
			},
			"routableCoordinates": {
				"coordinates": [
					-157.72928779179438,
					21.377204130098026
				],
				"type": "Point"
			},
			"walkableCoordinates": null
		},
		"number": 205
	},
	{
		"brand": {
			"brandId": "66",
			"name": "Albertsons"
		},
		"division": {
			"number": "27",
			"name": "Seattle"
		},
		"address": {
			"line1": "9001 N Indian Trail Rd",
			"line2": null,
			"city": "Spokane",
			"state": "WA",
			"zipcode": "99208",
			"country": "US",
			"displayCoordinates": {
				"coordinates": [
					-117.48853059145404,
					47.73966397062781
				],
				"type": "Point"
			},
			"routableCoordinates": {
				"coordinates": [
					-117.48853059145404,
					47.73966397062781
				],
				"type": "Point"
			},
			"walkableCoordinates": null
		},
		"number": 206
	},
	{
		"brand": {
			"brandId": "1",
			"name": "Safeway"
		},
		"division": {
			"number": "25",
			"name": "Norcal"
		},
		"address": {
			"line1": "46065 Kamehameha Hwy",
			"line2": null,
			"city": "Kaneohe",
			"state": "HI",
			"zipcode": "96744",
			"country": "US",
			"displayCoordinates": {
				"coordinates": [
					-157.8029945,
					21.4220984
				],
				"type": "Point"
			},
			"routableCoordinates": {
				"coordinates": [
					-157.8029945,
					21.4220984
				],
				"type": "Point"
			},
			"walkableCoordinates": null
		},
		"number": 207
	},
	{
		"brand": {
			"brandId": "66",
			"name": "Albertsons"
		},
		"division": {
			"number": "29",
			"name": "SoCal"
		},
		"address": {
			"line1": "30241 Golden Lantern",
			"line2": null,
			"city": "Laguna Niguel",
			"state": "CA",
			"zipcode": "92677",
			"country": "US",
			"displayCoordinates": {
				"coordinates": [
					-117.68778303268846,
					33.524085477060325
				],
				"type": "Point"
			},
			"routableCoordinates": {
				"coordinates": [
					-117.68778303268846,
					33.524085477060325
				],
				"type": "Point"
			},
			"walkableCoordinates": null
		},
		"number": 208
	},
	{
		"brand": {
			"brandId": "22",
			"name": "Amigos"
		},
		"division": {
			"number": "15",
			"name": "United"
		},
		"address": {
			"line1": "520 N 25 Mile Ave",
			"line2": null,
			"city": "Hereford",
			"state": "TX",
			"zipcode": "79045",
			"country": "US",
			"displayCoordinates": {
				"coordinates": [
					-102.40399897098541,
					34.83468562315384
				],
				"type": "Point"
			},
			"routableCoordinates": {
				"coordinates": [
					-102.40399897098541,
					34.83468562315384
				],
				"type": "Point"
			},
			"walkableCoordinates": null
		},
		"number": 210
	},
	{
		"brand": {
			"brandId": "1",
			"name": "Safeway"
		},
		"division": {
			"number": "25",
			"name": "Norcal"
		},
		"address": {
			"line1": "848 Ala Lilikoi St",
			"line2": null,
			"city": "Honolulu",
			"state": "HI",
			"zipcode": "96818",
			"country": "US",
			"displayCoordinates": {
				"coordinates": [
					-157.9138825,
					21.3445029
				],
				"type": "Point"
			},
			"routableCoordinates": {
				"coordinates": [
					-157.9138825,
					21.3445029
				],
				"type": "Point"
			},
			"walkableCoordinates": null
		},
		"number": 211
	},
	{
		"brand": {
			"brandId": "66",
			"name": "Albertsons"
		},
		"division": {
			"number": "17",
			"name": "Southwest"
		},
		"address": {
			"line1": "8350 W Cheyenne Ave",
			"line2": null,
			"city": "Las Vegas",
			"state": "NV",
			"zipcode": "89129",
			"country": "US",
			"displayCoordinates": {
				"coordinates": [
					-115.275066,
					36.2197912
				],
				"type": "Point"
			},
			"routableCoordinates": {
				"coordinates": [
					-115.275066,
					36.2197912
				],
				"type": "Point"
			},
			"walkableCoordinates": null
		},
		"number": 212
	},
	{
		"brand": {
			"brandId": "1",
			"name": "Safeway"
		},
		"division": {
			"number": "25",
			"name": "Norcal"
		},
		"address": {
			"line1": "98-1277 Kaahumanu St",
			"line2": null,
			"city": "Aiea",
			"state": "HI",
			"zipcode": "96701",
			"country": "US",
			"displayCoordinates": {
				"coordinates": [
					-157.95163303613663,
					21.39031115959129
				],
				"type": "Point"
			},
			"routableCoordinates": {
				"coordinates": [
					-157.95163303613663,
					21.39031115959129
				],
				"type": "Point"
			},
			"walkableCoordinates": null
		},
		"number": 214
	},
	{
		"brand": {
			"brandId": "1",
			"name": "Safeway"
		},
		"division": {
			"number": "25",
			"name": "Norcal"
		},
		"address": {
			"line1": "377 Keahole St",
			"line2": null,
			"city": "Honolulu",
			"state": "HI",
			"zipcode": "96825",
			"country": "US",
			"displayCoordinates": {
				"coordinates": [
					-157.7070774,
					21.2852129
				],
				"type": "Point"
			},
			"routableCoordinates": {
				"coordinates": [
					-157.7070774,
					21.2852129
				],
				"type": "Point"
			},
			"walkableCoordinates": null
		},
		"number": 215
	},
	{
		"brand": {
			"brandId": "1",
			"name": "Safeway"
		},
		"division": {
			"number": "17",
			"name": "Southwest"
		},
		"address": {
			"line1": "1650 Mcculloch Blvd N",
			"line2": null,
			"city": "Lake Havasu City",
			"state": "AZ",
			"zipcode": "86403",
			"country": "US",
			"displayCoordinates": {
				"coordinates": [
					-114.3422563,
					34.4743234
				],
				"type": "Point"
			},
			"routableCoordinates": {
				"coordinates": [
					-114.3422563,
					34.4743234
				],
				"type": "Point"
			},
			"walkableCoordinates": null
		},
		"number": 216
	},
	{
		"brand": {
			"brandId": "66",
			"name": "Albertsons"
		},
		"division": {
			"number": "20",
			"name": "Southern"
		},
		"address": {
			"line1": "105 E Southfield Rd",
			"line2": null,
			"city": "Shreveport",
			"state": "LA",
			"zipcode": "71105",
			"country": "US",
			"displayCoordinates": {
				"coordinates": [
					-93.7095017,
					32.4553126
				],
				"type": "Point"
			},
			"routableCoordinates": {
				"coordinates": [
					-93.7095017,
					32.4553126
				],
				"type": "Point"
			},
			"walkableCoordinates": null
		},
		"number": 218
	},
	{
		"brand": {
			"brandId": "1",
			"name": "Safeway"
		},
		"division": {
			"number": "27",
			"name": "Seattle"
		},
		"address": {
			"line1": "3900 S Othello St",
			"line2": null,
			"city": "Seattle",
			"state": "WA",
			"zipcode": "98118",
			"country": "US",
			"displayCoordinates": {
				"coordinates": [
					-122.2830543,
					47.5374346
				],
				"type": "Point"
			},
			"routableCoordinates": {
				"coordinates": [
					-122.2830543,
					47.5374346
				],
				"type": "Point"
			},
			"walkableCoordinates": null
		},
		"number": 219
	},
	{
		"brand": {
			"brandId": "15",
			"name": "United Supermarkets"
		},
		"division": {
			"number": "15",
			"name": "United"
		},
		"address": {
			"line1": "2522 Iowa Park Rd",
			"line2": null,
			"city": "Wichita Falls",
			"state": "TX",
			"zipcode": "76306",
			"country": "US",
			"displayCoordinates": {
				"coordinates": [
					-98.5178527,
					33.9287376
				],
				"type": "Point"
			},
			"routableCoordinates": {
				"coordinates": [
					-98.5178527,
					33.9287376
				],
				"type": "Point"
			},
			"walkableCoordinates": null
		},
		"number": 221
	},
	{
		"brand": {
			"brandId": "44",
			"name": "Shaws"
		},
		"division": {
			"number": "33",
			"name": "Shaws"
		},
		"address": {
			"line1": "97 E Main St",
			"line2": null,
			"city": "Wilmington",
			"state": "VT",
			"zipcode": "05363",
			"country": "US",
			"displayCoordinates": {
				"coordinates": [
					-72.8630348,
					42.8647144
				],
				"type": "Point"
			},
			"routableCoordinates": {
				"coordinates": [
					-72.8630348,
					42.8647144
				],
				"type": "Point"
			},
			"walkableCoordinates": null
		},
		"number": 222
	},
	{
		"brand": {
			"brandId": "55",
			"name": "Jewel-Osco"
		},
		"division": {
			"number": "32",
			"name": "JewelOsco"
		},
		"address": {
			"line1": "1537 N Larkin",
			"line2": null,
			"city": "Joliet",
			"state": "IL",
			"zipcode": "60435",
			"country": "US",
			"displayCoordinates": {
				"coordinates": [
					-88.1273809227605,
					41.550892774756505
				],
				"type": "Point"
			},
			"routableCoordinates": {
				"coordinates": [
					-88.1273809227605,
					41.550892774756505
				],
				"type": "Point"
			},
			"walkableCoordinates": null
		},
		"number": 224
	},
	{
		"brand": {
			"brandId": "66",
			"name": "Albertsons"
		},
		"division": {
			"number": "20",
			"name": "Southern"
		},
		"address": {
			"line1": "100 E Taylor St",
			"line2": null,
			"city": "Sherman",
			"state": "TX",
			"zipcode": "75092",
			"country": "US",
			"displayCoordinates": {
				"coordinates": [
					-96.6137809,
					33.653356
				],
				"type": "Point"
			},
			"routableCoordinates": {
				"coordinates": [
					-96.6137809,
					33.653356
				],
				"type": "Point"
			},
			"walkableCoordinates": null
		},
		"number": 226
	},
	{
		"brand": {
			"brandId": "66",
			"name": "Albertsons"
		},
		"division": {
			"number": "27",
			"name": "Seattle"
		},
		"address": {
			"line1": "1330 N 20th Ave",
			"line2": null,
			"city": "Pasco",
			"state": "WA",
			"zipcode": "99301",
			"country": "US",
			"displayCoordinates": {
				"coordinates": [
					-119.1190789715256,
					46.24035898563755
				],
				"type": "Point"
			},
			"routableCoordinates": {
				"coordinates": [
					-119.1190789715256,
					46.24035898563755
				],
				"type": "Point"
			},
			"walkableCoordinates": null
		},
		"number": 228
	},
	{
		"brand": {
			"brandId": "55",
			"name": "Jewel-Osco"
		},
		"division": {
			"number": "32",
			"name": "JewelOsco"
		},
		"address": {
			"line1": "7530 S Stony Island Ave",
			"line2": null,
			"city": "Chicago",
			"state": "IL",
			"zipcode": "60649",
			"country": "US",
			"displayCoordinates": {
				"coordinates": [
					-87.5874038,
					41.7584428
				],
				"type": "Point"
			},
			"routableCoordinates": {
				"coordinates": [
					-87.5874038,
					41.7584428
				],
				"type": "Point"
			},
			"walkableCoordinates": null
		},
		"number": 230
	},
	{
		"brand": {
			"brandId": "66",
			"name": "Albertsons"
		},
		"division": {
			"number": "20",
			"name": "Southern"
		},
		"address": {
			"line1": "3563 Alton Rd",
			"line2": null,
			"city": "Fort Worth",
			"state": "TX",
			"zipcode": "76109",
			"country": "US",
			"displayCoordinates": {
				"coordinates": [
					-97.36953289839221,
					32.6978367865746
				],
				"type": "Point"
			},
			"routableCoordinates": {
				"coordinates": [
					-97.36953289839221,
					32.6978367865746
				],
				"type": "Point"
			},
			"walkableCoordinates": null
		},
		"number": 232
	},
	{
		"brand": {
			"brandId": "1",
			"name": "Safeway"
		},
		"division": {
			"number": "17",
			"name": "Southwest"
		},
		"address": {
			"line1": "10926 W Bell Rd",
			"line2": null,
			"city": "Sun City",
			"state": "AZ",
			"zipcode": "85351",
			"country": "US",
			"displayCoordinates": {
				"coordinates": [
					-112.2920346,
					33.63868
				],
				"type": "Point"
			},
			"routableCoordinates": {
				"coordinates": [
					-112.2920346,
					33.63868
				],
				"type": "Point"
			},
			"walkableCoordinates": null
		},
		"number": 236
	},
	{
		"brand": {
			"brandId": "66",
			"name": "Albertsons"
		},
		"division": {
			"number": "27",
			"name": "Seattle"
		},
		"address": {
			"line1": "1024 21st St",
			"line2": null,
			"city": "Lewiston",
			"state": "ID",
			"zipcode": "83501",
			"country": "US",
			"displayCoordinates": {
				"coordinates": [
					-117.0032538,
					46.4098595
				],
				"type": "Point"
			},
			"routableCoordinates": {
				"coordinates": [
					-117.0032538,
					46.4098595
				],
				"type": "Point"
			},
			"walkableCoordinates": null
		},
		"number": 238
	},
	{
		"brand": {
			"brandId": "1",
			"name": "Safeway"
		},
		"division": {
			"number": "17",
			"name": "Southwest"
		},
		"address": {
			"line1": "1601 N Park Dr",
			"line2": null,
			"city": "Winslow",
			"state": "AZ",
			"zipcode": "86047",
			"country": "US",
			"displayCoordinates": {
				"coordinates": [
					-110.6995208,
					35.0369439
				],
				"type": "Point"
			},
			"routableCoordinates": {
				"coordinates": [
					-110.6995208,
					35.0369439
				],
				"type": "Point"
			},
			"walkableCoordinates": null
		},
		"number": 239
	},
	{
		"brand": {
			"brandId": "1",
			"name": "Safeway"
		},
		"division": {
			"number": "17",
			"name": "Southwest"
		},
		"address": {
			"line1": "3450 W Bell Rd",
			"line2": null,
			"city": "Phoenix",
			"state": "AZ",
			"zipcode": "85053",
			"country": "US",
			"displayCoordinates": {
				"coordinates": [
					-112.1336532,
					33.6407219
				],
				"type": "Point"
			},
			"routableCoordinates": {
				"coordinates": [
					-112.1336532,
					33.6407219
				],
				"type": "Point"
			},
			"walkableCoordinates": null
		},
		"number": 240
	},
	{
		"brand": {
			"brandId": "66",
			"name": "Albertsons"
		},
		"division": {
			"number": "27",
			"name": "Seattle"
		},
		"address": {
			"line1": "400 Bridge St",
			"line2": null,
			"city": "Clarkston",
			"state": "WA",
			"zipcode": "99403",
			"country": "US",
			"displayCoordinates": {
				"coordinates": [
					-117.0430352,
					46.4211994
				],
				"type": "Point"
			},
			"routableCoordinates": {
				"coordinates": [
					-117.0430352,
					46.4211994
				],
				"type": "Point"
			},
			"walkableCoordinates": null
		},
		"number": 241
	},
	{
		"brand": {
			"brandId": "66",
			"name": "Albertsons"
		},
		"division": {
			"number": "27",
			"name": "Seattle"
		},
		"address": {
			"line1": "220 Ironwood Dr",
			"line2": null,
			"city": "Coeur d'Alene",
			"state": "ID",
			"zipcode": "83814",
			"country": "US",
			"displayCoordinates": {
				"coordinates": [
					-116.7899765,
					47.6937846
				],
				"type": "Point"
			},
			"routableCoordinates": {
				"coordinates": [
					-116.7899765,
					47.6937846
				],
				"type": "Point"
			},
			"walkableCoordinates": null
		},
		"number": 243
	},
	{
		"brand": {
			"brandId": "1",
			"name": "Safeway"
		},
		"division": {
			"number": "5",
			"name": "Denver"
		},
		"address": {
			"line1": "3800 W 44th Ave",
			"line2": null,
			"city": "Denver",
			"state": "CO",
			"zipcode": "80211",
			"country": "US",
			"displayCoordinates": {
				"coordinates": [
					-105.0367947,
					39.7761908
				],
				"type": "Point"
			},
			"routableCoordinates": {
				"coordinates": [
					-105.0367947,
					39.7761908
				],
				"type": "Point"
			},
			"walkableCoordinates": null
		},
		"number": 244
	},
	{
		"brand": {
			"brandId": "1",
			"name": "Safeway"
		},
		"division": {
			"number": "17",
			"name": "Southwest"
		},
		"address": {
			"line1": "1044 Willow Creek Rd",
			"line2": null,
			"city": "Prescott",
			"state": "AZ",
			"zipcode": "86301",
			"country": "US",
			"displayCoordinates": {
				"coordinates": [
					-112.4844373,
					34.5614943
				],
				"type": "Point"
			},
			"routableCoordinates": {
				"coordinates": [
					-112.4844373,
					34.5614943
				],
				"type": "Point"
			},
			"walkableCoordinates": null
		},
		"number": 245
	},
	{
		"brand": {
			"brandId": "66",
			"name": "Albertsons"
		},
		"division": {
			"number": "27",
			"name": "Seattle"
		},
		"address": {
			"line1": "8851 E Trent Ave",
			"line2": null,
			"city": "Spokane",
			"state": "WA",
			"zipcode": "99212",
			"country": "US",
			"displayCoordinates": {
				"coordinates": [
					-117.2855816,
					47.6818398
				],
				"type": "Point"
			},
			"routableCoordinates": {
				"coordinates": [
					-117.2855816,
					47.6818398
				],
				"type": "Point"
			},
			"walkableCoordinates": null
		},
		"number": 246
	},
	{
		"brand": {
			"brandId": "1",
			"name": "Safeway"
		},
		"division": {
			"number": "17",
			"name": "Southwest"
		},
		"address": {
			"line1": "1225 W Guadalupe",
			"line2": null,
			"city": "Mesa",
			"state": "AZ",
			"zipcode": "85202",
			"country": "US",
			"displayCoordinates": {
				"coordinates": [
					-111.8598293,
					33.3630438
				],
				"type": "Point"
			},
			"routableCoordinates": {
				"coordinates": [
					-111.8598293,
					33.3630438
				],
				"type": "Point"
			},
			"walkableCoordinates": null
		},
		"number": 247
	},
	{
		"brand": {
			"brandId": "1",
			"name": "Safeway"
		},
		"division": {
			"number": "17",
			"name": "Southwest"
		},
		"address": {
			"line1": "1751 Hwy 95",
			"line2": null,
			"city": "Bullhead City",
			"state": "AZ",
			"zipcode": "86442",
			"country": "US",
			"displayCoordinates": {
				"coordinates": [
					-114.58853693338824,
					35.12186584150059
				],
				"type": "Point"
			},
			"routableCoordinates": {
				"coordinates": [
					-114.58853693338824,
					35.12186584150059
				],
				"type": "Point"
			},
			"walkableCoordinates": null
		},
		"number": 248
	},
	{
		"brand": {
			"brandId": "1",
			"name": "Safeway"
		},
		"division": {
			"number": "17",
			"name": "Southwest"
		},
		"address": {
			"line1": "650 Elm St",
			"line2": null,
			"city": "Page",
			"state": "AZ",
			"zipcode": "86040",
			"country": "US",
			"displayCoordinates": {
				"coordinates": [
					-111.457642,
					36.9158505
				],
				"type": "Point"
			},
			"routableCoordinates": {
				"coordinates": [
					-111.457642,
					36.9158505
				],
				"type": "Point"
			},
			"walkableCoordinates": null
		},
		"number": 249
	},
	{
		"brand": {
			"brandId": "1",
			"name": "Safeway"
		},
		"division": {
			"number": "17",
			"name": "Southwest"
		},
		"address": {
			"line1": "4752 E Sunrise Dr",
			"line2": null,
			"city": "Tucson",
			"state": "AZ",
			"zipcode": "85718",
			"country": "US",
			"displayCoordinates": {
				"coordinates": [
					-110.89134782552719,
					32.30723397664501
				],
				"type": "Point"
			},
			"routableCoordinates": {
				"coordinates": [
					-110.89134782552719,
					32.30723397664501
				],
				"type": "Point"
			},
			"walkableCoordinates": null
		},
		"number": 250
	},
	{
		"brand": {
			"brandId": "1",
			"name": "Safeway"
		},
		"division": {
			"number": "27",
			"name": "Seattle"
		},
		"address": {
			"line1": "1220 Morgan St",
			"line2": null,
			"city": "Davenport",
			"state": "WA",
			"zipcode": "99122",
			"country": "US",
			"displayCoordinates": {
				"coordinates": [
					-118.15814077258892,
					47.654658425076924
				],
				"type": "Point"
			},
			"routableCoordinates": {
				"coordinates": [
					-118.15814077258892,
					47.654658425076924
				],
				"type": "Point"
			},
			"walkableCoordinates": null
		},
		"number": 251
	},
	{
		"brand": {
			"brandId": "66",
			"name": "Albertsons"
		},
		"division": {
			"number": "27",
			"name": "Seattle"
		},
		"address": {
			"line1": "690 Gage Blvd",
			"line2": null,
			"city": "Richland",
			"state": "WA",
			"zipcode": "99352",
			"country": "US",
			"displayCoordinates": {
				"coordinates": [
					-119.2670179,
					46.2279684
				],
				"type": "Point"
			},
			"routableCoordinates": {
				"coordinates": [
					-119.2670179,
					46.2279684
				],
				"type": "Point"
			},
			"walkableCoordinates": null
		},
		"number": 252
	},
	{
		"brand": {
			"brandId": "1",
			"name": "Safeway"
		},
		"division": {
			"number": "17",
			"name": "Southwest"
		},
		"address": {
			"line1": "3185 W Apache Trail",
			"line2": null,
			"city": "Apache Junction",
			"state": "AZ",
			"zipcode": "85120",
			"country": "US",
			"displayCoordinates": {
				"coordinates": [
					-111.5796708,
					33.4137583
				],
				"type": "Point"
			},
			"routableCoordinates": {
				"coordinates": [
					-111.5796708,
					33.4137583
				],
				"type": "Point"
			},
			"walkableCoordinates": null
		},
		"number": 253
	},
	{
		"brand": {
			"brandId": "66",
			"name": "Albertsons"
		},
		"division": {
			"number": "27",
			"name": "Seattle"
		},
		"address": {
			"line1": "161 W Prairie Ave",
			"line2": null,
			"city": "Hayden",
			"state": "ID",
			"zipcode": "83835",
			"country": "US",
			"displayCoordinates": {
				"coordinates": [
					-116.7889991,
					47.7461371
				],
				"type": "Point"
			},
			"routableCoordinates": {
				"coordinates": [
					-116.7889991,
					47.7461371
				],
				"type": "Point"
			},
			"walkableCoordinates": null
		},
		"number": 254
	},
	{
		"brand": {
			"brandId": "1",
			"name": "Safeway"
		},
		"division": {
			"number": "17",
			"name": "Southwest"
		},
		"address": {
			"line1": "1551 W St Marys Rd",
			"line2": null,
			"city": "Tucson",
			"state": "AZ",
			"zipcode": "85745",
			"country": "US",
			"displayCoordinates": {
				"coordinates": [
					-110.9979842,
					32.2275776
				],
				"type": "Point"
			},
			"routableCoordinates": {
				"coordinates": [
					-110.9979842,
					32.2275776
				],
				"type": "Point"
			},
			"walkableCoordinates": null
		},
		"number": 255
	},
	{
		"brand": {
			"brandId": "1",
			"name": "Safeway"
		},
		"division": {
			"number": "25",
			"name": "Norcal"
		},
		"address": {
			"line1": "1016 W Sacramento Ave",
			"line2": null,
			"city": "Chico",
			"state": "CA",
			"zipcode": "95926",
			"country": "US",
			"displayCoordinates": {
				"coordinates": [
					-121.859663,
					39.7318924
				],
				"type": "Point"
			},
			"routableCoordinates": {
				"coordinates": [
					-121.859663,
					39.7318924
				],
				"type": "Point"
			},
			"walkableCoordinates": null
		},
		"number": 256
	},
	{
		"brand": {
			"brandId": "66",
			"name": "Albertsons"
		},
		"division": {
			"number": "27",
			"name": "Seattle"
		},
		"address": {
			"line1": "13606 E 32nd Ave",
			"line2": null,
			"city": "Spokane",
			"state": "WA",
			"zipcode": "99216",
			"country": "US",
			"displayCoordinates": {
				"coordinates": [
					-117.2226013,
					47.6262488
				],
				"type": "Point"
			},
			"routableCoordinates": {
				"coordinates": [
					-117.2226013,
					47.6262488
				],
				"type": "Point"
			},
			"walkableCoordinates": null
		},
		"number": 258
	},
	{
		"brand": {
			"brandId": "1",
			"name": "Safeway"
		},
		"division": {
			"number": "30",
			"name": "InterMtn"
		},
		"address": {
			"line1": "310 W Front St",
			"line2": null,
			"city": "Butte",
			"state": "MT",
			"zipcode": "59701",
			"country": "US",
			"displayCoordinates": {
				"coordinates": [
					-112.53725588321686,
					45.99774048100809
				],
				"type": "Point"
			},
			"routableCoordinates": {
				"coordinates": [
					-112.53725588321686,
					45.99774048100809
				],
				"type": "Point"
			},
			"walkableCoordinates": null
		},
		"number": 259
	},
	{
		"brand": {
			"brandId": "55",
			"name": "Jewel-Osco"
		},
		"division": {
			"number": "32",
			"name": "JewelOsco"
		},